state,Name,summit,broadrelief,steeprelief,lat,lon,broadcoord.X,broadcoord.Y,steepcoord.X,steepcoord.Y
Tibet,Mount Everest,8849,8568,6468,27.9880555555556,86.925,86.0280718013503,28.776177495023,87.2185046893156,27.8290604766932
Jammu-Kashmir,K2,8611,5663,4317,35.8811111111111,76.5133333333333,76.4153100315812,35.6681470375732,76.4566166156087,35.825895873506
Nepal,Kanchenjunga,8586,8206,6513,27.7,88.1333305555555,87.2377137455416,28.489446348291,87.2377137455416,28.489446348291
Nepal,Kangchenjunga,8586,8208,6513,27.7027777777778,88.1475,88.2795069604507,27.4054109931692,87.2518597495825,28.4922234668986
Nepal,Dhaulagiri,8167,7485,6788,28.6966666666667,83.49,82.6680027594011,29.4134966237389,83.5664236934182,28.6016799834079
Nepal,Manaslu,8163,7861,7157,28.55,84.5597222222222,83.6601040429646,29.3353852209311,83.6601040429646,29.3353852209311
Jammu-Kashmir,Nanga Parbat,8125,7153,7063,35.2391666666667,74.59,74.2354360010458,35.3854330723569,73.6616422223957,35.9907967951778
Nepal,Annapurna,8091,6749,5709,28.5961111111111,83.8238888888889,83.0022718295897,29.3148542440525,83.4398924360933,28.5837052059654
Tibet,Shishapangma,8027,7415,4457,28.3522222222222,85.7797222222222,84.8808940106951,29.1390922923738,85.4362950390514,28.2077348467205
Jammu-Kashmir,Disteghil Sar,7885,6076,5226,36.3258333333333,75.1880555555556,74.9428154552875,36.1311490090262,74.2595607629017,37.0672797817786
Uttaranchal,Nanda Devi,7816,7087,5222,30.3738888888889,79.9708333333333,79.1647191690285,31.0665550910276,79.7403757064191,30.2276885461226
Jammu-Kashmir,Batura Sar,7795,6322,5549,36.51,74.5225,73.5860595656495,37.2558605632905,74.6414295674602,36.3538136214182
Jammu-Kashmir,Rakaposhi,7788,6580,6346,36.1425,74.4891666666667,74.5503492657951,35.8768465948756,73.55270792159,36.8915746798029
Tibet,Namcha Barwa,7782,7180,6032,29.6305555555556,95.0552777777778,94.3084881900184,30.2770435403562,94.3084881900184,30.2770435403562
Uttaranchal,Kamet,7756,6738,4286,30.92,79.5933333333333,79.4864370377573,30.6606790801422,79.6246773120428,30.629148960803
Pakistan,Tirich Mir,7708,6257,5484,36.2458333333333,71.8438888888889,71.0068967041651,36.9157804501047,71.0068967041651,36.9157804501047
Xinjiang,Kongur Tagh,7649,6075,5301,38.5938888888889,75.3133333333333,75.4724571724454,38.8420928838498,74.4801388164296,39.2378599724766
Bhutan,Gangkhar Puensum,7570,5776,3074,28.0469444444444,90.455,90.2345832928197,27.9277007995651,90.6720236949176,28.2119496455619
Sichuan,Mount Gongga,7556,5927,4985,29.5958333333333,101.879166666667,101.234076783842,30.1567957647112,101.234076783842,30.1567957647112
Tadzhikistan,Ismoil Somoni Peak,7495,5529,4397,38.9427777777778,72.0152777777778,71.144537068067,39.61264258208,71.144537068067,39.61264258208
Pakistan,Noshaq,7492,6001,4770,36.4330555555556,71.8283333333333,70.9924821406307,37.098748504711,71.9416998238243,36.2049571757745
Kirgizistan,Pik Pobeda,7439,6069,3851,42.035,80.1284722222222,79.9987388179114,41.7825222093335,79.2927290619438,42.6483537182664
Tibet,Gyala Peri,7294,6561,5888,29.8141666666667,94.9683333333333,94.2208885015349,30.4590014080122,94.2208885015349,30.4590014080122
Kirgizistan,Khan Tengri,7010,5089,3717,42.2108333333333,80.1741666666667,79.3232239932177,42.8326981028602,79.3232239932177,42.8326981028602
Tibet,Muztag,6973,2036,1434,36.4166666666667,87.3833333333333,86.7060920947195,36.9593644285986,86.7060920947195,36.9593644285986
Mendoza,Aconcagua,6961,6256,3704,-32.6530555555556,-70.0116666666667,-70.7480620905037,-32.0247549315685,-70.7480620905037,-32.0247549315685
Atacama,Ojos del Salado,6893,2691,1951,-27.1095833333333,-68.5423611111111,-68.6073206738859,-27.2195353517644,-68.4761953438103,-27.0390383526447
Afghanistan,Kuh-e Bandaka,6812,5087,4462,36.1791666666667,70.9833333333333,70.9234132976045,36.4033233380713,70.8929953573789,36.1960303336293
Catamarca,Monte Pissis,6793,2689,2155,-27.7555555555556,-68.7983333333333,-68.7165631599217,-27.7030567168699,-68.739352638129,-27.7459324586824
Peru,Nevado Huascarán,6768,6202,4440,-9.12111111111111,-77.6047222222222,-78.2094017776801,-8.52003184088715,-77.6940973604126,-9.0923936929487
Xinjiang,Chakragil,6760,5249,4421,38.8658333333333,75.1083333333333,75.3611916075909,38.8021892566665,75.2286087945431,38.6852945054796
La Rioja,Cerro Bonete,6760,3705,1908,-28.0183333333333,-68.7558333333333,-68.671192991715,-28.1350276116071,-69.4553309124451,-27.3933141143824
Antofagasta,Cerro Llullaillaco,6752,3434,2403,-24.7197222222222,-68.5366666666667,-69.2172053124648,-24.0947464420792,-68.5682389053186,-24.6966527961633
Atacama,Tres Cruces,6748,2924,2083,-27.0977777777778,-68.7788888888889,-68.8840518881354,-27.0317215081418,-68.8160304431099,-27.0452931543508
San Juan,Cerro Mercedario,6718,5737,4006,-31.9788888888889,-70.1127777777778,-70.8438689323883,-31.3505767332834,-70.0420804366792,-31.936618722355
Peru,Nevado Huascarán - Pico Norte,6664,6160,4424,-9.10222222222222,-77.6202777777778,-78.2249276942469,-8.50114339937146,-77.6937362684921,-9.10515331871308
Catamarca,Cerro Cazadero,6663,2733,2224,-27.1944444444444,-68.5608333333333,-69.2552551660093,-26.5694125304367,-68.5400116722331,-27.0900711371226
Xinjiang,Xuelian Feng,6627,4604,4059,42.2616666666667,80.89,80.032661751702,42.8883394901185,80.7956823324914,42.2388062468294
Pakistan,Buni Zom,6542,5004,4647,36.1541666666667,72.3275,72.0873214521822,36.0377145455841,72.2369660450479,36.1731030456619
Bolivia,Nevado Sajama,6542,2634,2232,-18.1077777777778,-68.8830555555555,-68.8021103823158,-18.1546068460269,-69.5086495928557,-17.5076034377326
Atacama,El Muerto,6502,2515,2409,-27.0572222222222,-68.4844444444444,-69.1780419083119,-26.4321882559248,-69.1780419083119,-26.4321882559248
Catamarca,Cerro del Nacimiento,6465,2719,2238,-27.2805555555556,-68.5125,-68.6254116132283,-27.2212633416441,-68.4865882740686,-27.3002719329708
Catamarca,Volcán Antofalla,6440,3118,1388,-25.5627777777778,-67.8811111111111,-68.566107487747,-24.9377227928366,-67.8630278666346,-25.7021040323148
Bolivia,Nevado de Illimani,6438,5433,4659,-16.6480555555556,-67.7808333333333,-68.3971979364305,-16.0525934931722,-67.7358727954196,-16.7086385458859
Bolivia,Nevado Ancohuma,6427,5735,3941,-15.8541666666667,-68.5408333333333,-68.3468108328222,-15.7271562374455,-68.6034175412471,-15.8085663374386
Peru,Nevado Coropuna,6405,5741,2529,-15.5461111111111,-72.6605555555556,-73.2604945127384,-14.9627079118178,-72.9194845080638,-15.4784974596049
Peru,Nevado Huandoy,6395,6194,4435,-9.02861111111111,-77.6652777777778,-78.2698128401066,-8.42753404265321,-77.6955252630345,-9.1038798721114
Qinghai,Amnye Maqen,6282,2605,2114,34.7383333333333,99.5036111111111,99.0345609312589,35.122739162402,99.0345609312589,35.122739162402
Ecuador,Chimborazo,6263,6229,2892,-1.46916666666667,-78.8175,-79.3814820989315,-0.89957603018207,-79.3814820989315,-0.89957603018207
Alaska,Denali,6191,6021,5263,63.0691111111111,-151.006530555556,-152.253348259347,63.6191903485415,-152.253348259347,63.6191903485415
Antofagasta,Aucanquilcha,6176,2487,1907,-21.2208333333333,-68.4686111111111,-69.0662200957589,-20.6555038320507,-68.4279137052349,-21.223312186587
Bolivia,Nevado de Chiaraco,6104,5344,3127,-15.9605555555556,-68.4130555555556,-69.0273561753049,-15.3650950377115,-68.6016506003258,-15.8109583095509
Bolivia,Huayna Potosí,6088,5333,3556,-16.2622222222222,-68.1538888888889,-68.7720556351161,-15.6628663927368,-68.7720556351161,-15.6628663927368
Yukon,Mount Logan,5958,5558,4286,60.5671611111111,-140.404138888889,-141.512618521337,61.1008046237866,-140.372932445616,60.4995312939023
Ecuador,Volcán Cotopaxi,5897,3241,2469,-0.680555555555555,-78.4380555555556,-78.4676563690967,-0.54756806517219,-78.4743950266281,-0.690006064932164
Tanzania,Mount Kilimanjaro*,5895,5196,4478,-3.06666666666667,37.3591666666667,36.8285140911937,-2.53310988586296,37.334290862067,-3.15271460122387
Qinghai,Altun Shan,5830,3949,2395,39.2508333333333,93.6963888888889,93.7103843518628,39.4305720379915,93.1040928561511,39.706043125073
Qinghai,Kangze'gyai,5808,1703,1374,38.5002777777778,97.7247222222222,97.1816514059479,38.9238126362242,97.7236328178881,38.524195355567
Ecuador,Volcán Cayambe,5790,5087,3003,0.0252777777777778,-77.9888888888889,-78.5530114577878,0.594617588205069,-77.9331484226343,0.0113052590177804
Colombia,Pico Cristóbal Colón,5700,5700,4554,10.8383333333333,-73.6866666666667,-74.2148672864376,11.3608197273389,-74.2148672864376,11.3608197273389
Kabardino-Balkariya,Mount Elbrus,5642,5077,3636,43.35254,42.437875,41.7367978795762,43.8579110097974,42.3655502566086,43.3379806830348
Puebla,Pico de Orizaba,5636,5104,3755,19.03025,-97.2699,-97.8077345387705,19.5403785269118,-97.2195172335135,18.9968623226593
Iran,Mount Damavand,5610,5409,4553,35.9552777777778,52.1091666666667,52.2090290528782,36.1668895927025,52.1921612656346,35.9798980873691
Yunnan,Jade Dragon Snow Mountain,5596,4298,3870,27.0983333333333,100.175,100.284917477621,26.9463555772823,100.161529241525,27.1720203039135
Tucumán,Cerro del Bolsón,5552,5184,4176,-27.2141666666667,-66.0941666666667,-66.7782178922607,-26.5977606573992,-65.9794279793486,-27.2311314885749
Alaska,Mount Saint Elias,5489,5489,5212,60.2930166666667,-140.930072222222,-142.02905513766,60.8267331131809,-142.02905513766,60.8267331131809
Xinjiang,Bogda Peak,5445,4865,2403,43.8016666666667,88.335,88.2891978523022,43.9778345272645,88.3048799658581,43.7730869361666
Colombia,Ritacuba Blanco,5410,4952,2498,6.49416666666667,-72.2975,-72.0959757047222,6.39280520414068,-72.0756036328455,6.47191898507663
Puebla,Popocatepetl,5405,4160,3205,19.0223597222222,-98.6277902777778,-99.1655986954179,19.5324890364458,-98.5940315135546,18.9776831753442
Colombia,Nevado del Huila,5390,4386,3351,2.92361111111111,-76.0283333333333,-76.1768947947391,3.01842181961213,-76.039711189649,2.86921462225219
Colombia,Nevado del Ruiz,5311,5063,2362,4.89166666666667,-75.3186111111111,-75.8058746476079,5.3797632302272,-75.8058746476079,5.3797632302272
Alaska,Mount Foraker,5304,5105,4193,62.9604,-151.3998,-150.891469823282,62.8218999371239,-152.641875518051,63.5105133717726
Yukon,Mount Lucania,5226,4157,3399,61.0233333333333,-140.465555555556,-141.590265200688,61.5568537966389,-141.590265200688,61.5568537966389
México State,Volcán Iztaccíhuatl,5213,3207,2436,19.1802777777778,-98.6416666666667,-98.7669273271049,19.049830199102,-98.5745610788208,19.0159828570553
Kenya,Mount Kenya,5199,2466,1373,-0.1,37.2,36.7498929709947,0.353496791872269,36.7498929709947,0.353496791872269
Kabardino-Balkariya,Shkhara,5193,4534,3699,43,43.1097222222222,42.4127378303861,43.5054285626813,42.4127378303861,43.5054285626813
Turkey,Mount Ararat,5137,4341,4077,39.7,44.3,43.6989616818151,40.1604391244086,44.3267867271428,39.7724551490671
Zaïre,Mount Stanley,5109,4414,4235,0.385833333333333,29.8716666666667,29.8355976023249,0.566571439623511,29.8266148272303,0.442220619184778
Alaska,Mount Bona,5044,4625,3556,61.3856,-141.7495,-142.887493908388,61.9190211778084,-141.815540871494,61.3404007531701
Alaska,Mount Blackburn,4996,4690,4162,61.7316666666667,-143.433055555556,-144.459706296479,62.2086186052326,-143.559155458298,61.6874148659765
Alaska,Mount Blackburn,4996,4680,4155,61.7305,-143.4031,-144.457975797878,62.2189072657603,-143.556599870646,61.6889122911127
Venezuela,Pico Bolívar,4981,4753,3749,8.54086111111111,-71.0465,-71.5303924775314,9.02243015196871,-71.11194467728,8.54126248901586
Kazakhstan,Pik Talgar,4979,4377,3378,43.1178388888889,77.3413333333333,77.2955533159645,43.2959181470338,76.6573486280417,43.6134331671101
Sichuan,Jiuding Shan,4969,4400,3534,31.5433333333333,103.853333333333,103.182374714844,32.1113311746507,103.789349254335,31.5561692479105
Alaska,Mount Sanford,4949,4355,3746,62.2132,-144.1292,-145.106276251267,62.6599157403666,-144.00596791036,62.1989235579684
Xinjiang,Tomort,4886,3883,1761,43.0733333333333,94.3466666666667,93.7454745204067,43.5095358202753,94.5137622003341,42.9551574953804
Irian Jaya,Puncak Jaya,4884,4750,3622,-4.08333333333333,137.183333333333,136.734404597682,-3.63217715461192,136.734404597682,-3.63217715461192
Iran,Sabalan,4811,4039,2585,38.2669444444444,47.8369444444444,47.2788855764265,38.7021397979186,47.7650039120814,38.2755259561508
Italy,Mont Blanc,4808,4471,4242,45.8327777777778,6.865,6.24768552802302,46.2598646491731,6.24768552802302,46.2598646491731
Kamchatka,Klyuchevskaya Sopka,4750,4720,4176,56.0666666666667,160.633333333333,159.859684669282,56.4917218333018,160.775245146032,56.0404946290117
México State,Nevado de Toluca,4685,3032,1416,19.1019722222222,-99.7677388888889,-100.305716421162,19.6121841964997,-99.7718722921616,19.0822329162813
Alaska,Mount Fairweather,4671,4578,4327,58.9063962962963,-137.526555555556,-138.364850676389,59.332677872231,-138.364850676389,59.332677872231
Italy,Monte Rosa,4633,4427,3734,45.9369444444444,7.86666666666667,7.24897890701909,46.362312373948,7.24897890701909,46.362312373948
Tanzania,Mount Meru,4565,3507,3045,-3.24678055555556,36.76025,36.229521469532,-2.71321776187505,36.7601150299668,-3.30343744847595
Alaska,Mount Hubbard,4557,4557,3360,60.3194,-139.0726,-140.172488679221,60.8531094597109,-139.154585215389,60.2876472187685
Ethiopia,Ras Dashen,4550,3397,2475,13.2366666666667,38.3725,37.9428520917421,13.6567461771381,38.3495625251406,13.3339694355827
Alaska,Mount Bear,4520,3490,2626,61.2834,-141.1433,-142.277509919364,61.8168493318193,-141.218522855201,61.2740911549361
Papua New Guinea,Mount Wilhelm,4509,4351,3083,-5.8,145.033333333333,144.6294259555,-5.39532771093479,145.008375599106,-5.6238005787572
Zaïre,Mount Karisimbi,4507,3325,2597,-1.5,29.45,29.4257835559393,-1.36836969854569,29.3965785423756,-1.4339355969654
Altay,Belukha Mountain,4506,3426,2775,49.8069444444444,86.5897222222222,85.997941634424,50.1851617948348,86.6068656570826,49.7685974839272
Switzerland,Matterhorn,4478,4136,3006,45.9763888888889,7.65861111111111,7.04086545672639,46.402023539913,7.04086545672639,46.402023539913
Dagestan,Bazar Dyuzi,4466,4125,3075,41.2205555555556,47.8580555555556,47.7331923740365,41.0652071089182,47.8312193596569,41.3759196405934
Alaska,Mount Hunter,4442,5047,4122,62.9504,-151.0915,-152.33314133726,63.5005165031083,-152.33314133726,63.5005165031083
Tlaxcala,Volcán La Malinche,4438,2211,1331,19.2308333333333,-98.0319444444444,-98.1193778767212,19.1996909347655,-98.0456859737073,19.2155204290002
California,Mount Whitney,4420,3344,2851,36.5786027777778,-118.292086111111,-118.797354418112,36.9831792924396,-118.25275768711,36.6868681928517
Colorado,Mount Elbert,4401,1596,1323,39.1178,-106.445366666667,-106.802858736958,39.3960790903719,-106.414102781167,39.0858639014099
Washington,Mount Rainier,4394,4314,3659,46.8529388888889,-121.760438888889,-122.34197311683,47.2470360270941,-122.34197311683,47.2470360270941
Colorado,Blanca Peak,4374,2087,1852,37.5775,-105.485585185185,-105.863002388408,37.8768802086907,-105.502049426259,37.5441169260157
Colorado,Uncompahgre Peak,4365,2088,1329,38.0717,-107.4621,-107.557152179552,38.1204462892968,-107.829202308355,38.3609048056361
Colorado,Crestone Peak,4359,2055,1850,37.9669,-105.5855,-105.692716811386,37.9382465913349,-105.630171776309,37.9743242525756
Colorado,Longs Peak,4346,2392,1691,40.255,-105.615,-106.009643155384,40.5566947825189,-105.575923085075,40.2444115958763
California,White Mountain Peak,4344,3107,2924,37.6341,-118.2557,-118.768133252117,38.0385625281827,-118.309321486997,37.6026884324101
California,North Palisade,4341,3176,2538,37.0941666666667,-118.514444444444,-118.368193649498,37.0176207401955,-118.356942634354,37.0243644757373
California,Mount Shasta,4320,3705,3112,41.4091990740741,-122.194896296296,-122.714713182193,41.7956000871932,-122.714713182193,41.7956000871932
Alaska,Mount Wrangell,4317,3678,2892,62.0059,-144.0187,-144.989003028665,62.4526591324499,-144.005927684523,62.1935671339989
Colorado,Pikes Peak,4302,2504,1575,38.8405,-105.0442,-105.425018376337,39.137816528714,-105.026055536383,38.8546861732572
Yukon,Mount Augusta,4289,4014,3276,60.3074,-140.4584,-141.557876494019,60.8411126383804,-140.860298385476,60.2077491935341
Colorado,Culebra Peak,4283,2016,1314,37.1224,-105.1858,-105.075216627649,37.1410456927631,-105.566255012529,37.4265717293483
Jalisco,Nevado de Colima,4265,3749,2717,19.5633166666667,-103.608655555556,-104.012296955297,19.944481338251,-103.570585635462,19.5542339760949
Guatemala,Volcán Tajumulco,4220,4183,3593,15.0333333333333,-91.9,-92.2922525186727,15.4138795367484,-91.9451431804217,15.0075265332839
Alaska,Regal Mountain,4220,3689,3004,61.7438,-142.8675,-144.018987632496,62.2771215801645,-142.80674227644,61.6986057129041
Guatemala,Volcán Tajumulco,4220,4183,3597,15.043,-91.9037,-92.2959706558668,15.4235456502505,-91.9418691793582,15.0058974894727
Alaska,Mount Hayes,4216,3591,3121,63.6204777777778,-146.716866666667,-147.57307768605,63.9933423142823,-146.644273440961,63.6616807124263
Wyoming,Gannett Peak,4209,1792,1571,43.1842666666667,-109.654233333333,-109.702823708325,43.1104011137995,-110.058471021443,43.4787453783643
Hawaiian Is.,Mauna Kea,4207,4207,2111,19.8206518518518,-155.468051851852,-155.872060146339,20.1998125417984,-155.5012311719,19.8682990846435
Wyoming,Grand Teton,4199,2297,2186,43.7412,-110.8024,-111.207394301279,44.0333065275041,-111.207394301279,44.0333065275041
Alaska,Mount Cook,4194,4194,3387,60.1816,-139.9811,-141.076276862113,60.7153458770523,-141.076276862113,60.7153458770523
Hawaiian Is.,Mauna Loa,4169,4169,1693,19.4756,-155.6054,-156.009295328004,19.8563178473713,-155.427260709212,19.5427678520985
Morocco,Toubkal,4167,3459,2456,31.0619444444444,-7.91611111111111,-8.34984280189283,31.4334017052484,-8.34984280189283,31.4334017052484
Papua New Guinea,Mount Boising,4150,3875,3223,-5.8,146.1,145.696092622167,-5.39532771093479,146.120177896127,-5.74135723481549
La Rioja,El Melao,4150,3189,2707,-28.8675,-67.1275,-67.2144569126137,-28.9755162101079,-67.263135154291,-28.9303640501205
Utah,Kings Peak,4125,1150,871,40.7763,-110.3729,-110.72714423552,41.0433377194944,-110.391079347628,40.7624758982349
Sabah,Mount Kinabalu,4095,4047,3879,6.075,116.558611111111,116.189289431738,6.44241093191399,116.514748371302,6.13508675892788
Alaska,Mount Natazhat,4095,3242,2616,61.5217,-141.103,-140.995177217567,61.6469732366244,-141.117767570083,61.5572795232912
Alaska,Mount Jarvis,4091,3271,2576,62.0234,-143.6198,-143.85443361957,61.8990582909358,-144.590670687346,62.4701554827654
Armenia,Aragats Lerr,4090,3134,1421,40.5230555555556,44.1952777777778,43.5867124966431,40.983292400061,44.2133887335337,40.509861236249
Guatemala,Volcán Tacaná,4067,4055,3544,15.1325,-92.1083333333333,-92.5007725223413,15.5130405188132,-92.1558220511994,15.1021741577093
Aisén,Cerro San Valentín,4058,4086,3949,-46.595,-73.3456944444444,-73.9182676782811,-46.1972404115747,-73.2700060013665,-46.5472521020699
Cameroon,Mount Cameroon,4040,4040,3488,4.21666666666667,9.1725,8.80820148731726,4.58124618548536,9.11687846382397,4.23090772435196
British Columbia,Mount Waddington,4019,4019,3022,51.3736555555556,-125.263466666667,-125.846734232347,51.7335836562638,-125.332378280337,51.4069370189068
Alaska,Mount Marcus Baker,4008,4008,3738,61.4375259259259,-147.752037037037,-148.547238127228,61.8105522061998,-147.717894533171,61.3843520970207
Wyoming,Cloud Peak,4014,2037,1134,44.3821407407407,-107.173896296296,-107.617445609047,44.6993588805706,-107.144484945028,44.3514942571841
New Mexico,Wheeler Peak,4013,1824,1148,36.5568,-105.4169,-105.497772692193,36.5050014223396,-105.517362413289,36.5477914044565
Wyoming,Francs Peak,4012,1888,1357,43.9613,-109.3392,-109.237390556217,44.0054895217181,-109.243733110382,43.9379952788071
California,Boundary Peak,4007,2740,2563,37.8461,-118.3514,-118.379586612834,37.7223495360592,-118.368248500977,37.7426235008528
California,Mount Ritter,4006,2736,1662,37.6891666666667,-119.199444444444,-119.20493458893,37.5721735907222,-119.712261898999,38.0936231960198
Nevada,Wheeler Peak,3982,2412,2132,38.9858,-114.3139,-114.728444887465,39.3070441167411,-114.363002909796,38.9767368826174
Guatemala,Volcán Acatenango,3975,3871,3181,14.5016,-90.8755,-91.2667744665523,14.8821763095762,-91.2667744665523,14.8821763095762
British Columbia,Mount Robson,3959,3237,3156,53.1105277777778,-119.156633333333,-119.71035296715,53.4413092544853,-119.71035296715,53.4413092544853
Taiwan,Yushan,3952,3575,3033,23.47,120.957266666667,120.571902213987,23.8237838825237,120.571902213987,23.8237838825237
Iran,Taftan,3941,2429,1615,28.6,61.1333333333333,61.2293577967634,28.5696942999392,61.155264438546,28.6058179875299
México Distrito Federal,Cerro Ajusco,3937,1653,1228,19.2075,-99.2583333333333,-99.2172946384486,19.232925724817,-99.2434504994094,19.2171204496923
Montana,Granite Peak,3904,2169,1489,45.1634333333333,-109.807533333333,-110.252538924453,45.4770930073752,-109.766708122884,45.2485022372903
Alaska,Mount Crillon,3879,3823,3389,58.6625,-137.1712,-137.965034234064,59.0682356100498,-137.262180412171,58.6307322598232
Utah,Mount Peale,3879,2394,1647,38.4385,-109.2292,-109.334446885075,38.4683164428778,-109.619538946772,38.7447260613118
Idaho,Borah Peak,3861,2015,1914,44.1374,-113.7811,-114.214961306273,44.448999282887,-113.819011590069,44.1123295355589
Arizona,Humphreys Peak,3852,1915,1404,35.3464,-111.678,-111.586911862436,35.3961642369,-112.089211442135,35.6816687377734
Xinjiang,Sauyr Zhotasy,3840,2309,1505,47.0491666666667,85.5666666666667,85.0195566491319,47.4185934973685,85.0195566491319,47.4185934973685
Michoacán,Volcán Tancítaro,3840,3452,1532,19.4166333333333,-102.319761111111,-102.72303144053,19.7978078572614,-102.353127438687,19.3872256657771
California,Mount Conness,3839,2293,1326,37.9669444444444,-119.321388888889,-119.836160520083,38.3713706350781,-119.204638554176,37.9242273342159
Myanmar,Saramati,3826,3617,3149,25.7333333333333,95.0333333333333,94.3193519069952,26.3746695256189,94.3193519069952,26.3746695256189
Costa Rica,Chirripó Grande,3820,3453,2408,9.48423333333333,-83.4887555555556,-83.8349336634591,9.82559196022647,-83.4862505385717,9.57261114046954
Jalisco,Volcán de Colima,3820,3764,2703,19.5130555555556,-103.6175,-104.021013878684,19.8942236081703,-103.569900889078,19.5536551078281
Sumatera,Mount Kerinci,3805,3567,3147,-1.69694388888889,101.264443888889,100.933726847232,-1.36279970960532,100.933726847232,-1.36279970960532
Austria,Großglockner,3797,3085,2555,47.0744444444444,12.6938888888889,12.7608131104708,46.9470987323078,12.7908021514056,47.1876952694175
Honshu,Mount Fuji,3776,3776,3320,35.3605555555556,138.7275,138.313992297158,35.698519480607,138.689835974772,35.3161590677253
Alaska,Mount Deborah,3761,3107,2520,63.6377,-147.2384,-148.095138173836,64.0105617138544,-147.185988495703,63.6676980288988
Washington,Mount Adams,3743,3356,2636,46.2024,-121.4909,-122.065437966673,46.5965753086468,-122.065437966673,46.5965753086468
Alberta,Mount Columbia,3741,2844,2475,52.1472611111111,-117.441633333333,-117.97145284295,52.4695660238963,-117.97145284295,52.4695660238963
Lesser Sunda Is.,Mount Rinjani,3726,3646,3181,-8.41666666666667,116.466666666667,116.134468468556,-8.08528107608594,116.134468468556,-8.08528107608594
New Zealand South,Aoraki/Mount Cook,3724,3208,2479,-43.595,170.141944444444,169.750183957726,-43.3066195088255,169.750183957726,-43.3066195088255
Oaxaca,Cerro Nube Flane,3721,3442,2340,16.2144444444444,-96.1822222222222,-96.5297575085475,16.549912051266,-96.5297575085475,16.549912051266
Nuevo León,Cerro El Potosí,3720,2942,1717,24.8717833333333,-100.232738888889,-100.602410406243,25.2098129019816,-100.210525599352,24.8581950746621
Idaho,Diamond Peak,3719,2100,1534,44.1414,-113.0827,-113.544000882654,44.4716110467008,-113.057144204913,44.1373022885666
Canary Is.,Teide,3715,3715,3435,28.2726388888889,-16.6436111111111,-17.0175523681567,28.6030539089008,-16.6571226593246,28.326101243265
Coahuila,Cerro San Rafael,3715,2913,1437,25.3636111111111,-100.556944444444,-100.476840728508,25.476923104143,-100.444545892481,25.4498213113401
Utah,Delano Peak,3711,1932,1515,38.3692,-112.3714,-112.288332727447,38.412007056589,-112.285491609211,38.3939876515445
Oaxaca,Cerro el Nacimiento,3710,3437,2400,16.2115,-96.1967,-96.5442300126431,16.5469677546446,-96.5442300126431,16.5469677546446
Santa Cruz,Monte San Lorenzo,3706,3405,3257,-47.5916666666667,-72.3066666666667,-72.8720593951646,-47.206518392114,-72.8720593951646,-47.206518392114
Utah,Ibapah Peak,3686,2368,1859,39.8282,-113.92,-113.819880942335,39.8760261817533,-113.881289039229,39.8062627759522
Nevada,Mount Moriah,3680,2202,1309,39.2732,-114.1988,-114.600319768444,39.583303365983,-114.135060142767,39.2124278877038
Jawa,Semeru,3676,3642,3060,-8.1,112.916666666667,112.585085286211,-7.7682531999532,112.585085286211,-7.7682531999532
Papua New Guinea,Mount Suckling,3676,3665,3024,-9.66916666666667,149.010833333333,148.645971293538,-9.30809514325512,148.645971293538,-9.30809514325512
North Yemen,Jabal An-Nabi Shu'ayb,3666,2487,1992,15.2791666666667,43.9758333333333,43.6347757629869,15.6103499813245,43.9262617197123,15.2581492562684
Alaska,Mount Drum,3661,3167,2616,62.1159,-144.6394,-144.812648274793,62.0096868124242,-144.564175482077,62.1286658768309
Idaho,Hyndman Peak,3660,1791,1342,43.7495,-114.1311,-114.075107700702,43.6798685787361,-114.561481759028,44.0593339753322
New Mexico,Sierra Blanca Peak,3652,2168,1622,33.3743,-105.8087,-105.907690385951,33.3430194022182,-106.137116425517,33.6491735043304
Nevada,Mount Jefferson,3641,1676,1127,38.7519,-116.9267,-116.984094985308,38.8128257298065,-116.984094985308,38.8128257298065
Utah,Mount Nebo,3637,2262,2136,39.8219,-111.7603,-112.113436813814,40.0927708516735,-112.113436813814,40.0927708516735
Nevada,Charleston Peak,3632,2734,1598,36.2716,-115.6956,-115.788191577124,36.2213226043945,-115.71312536357,36.2574049106597
Nevada,North Schell Peak,3626,1928,1330,39.4132,-114.5997,-114.989968149167,39.7145966661224,-114.989968149167,39.7145966661224
Aisén,Lautaro,3623,3481,3481,-49.019,-73.504,-74.1049432531448,-48.6200156319088,-74.1049432531448,-48.6200156319088
British Columbia,Mount Assiniboine,3616,2446,2271,50.8696,-115.6509,-115.697055298793,50.7841488710691,-116.115556695883,51.160777232386
Kamchatka,Ichinsky,3607,3207,2600,55.6777777777778,157.721666666667,157.497990038317,55.7242350956066,157.143770796306,56.001520484681
Nevada,Arc Dome,3590,1557,1135,38.8327,-117.3531,-117.245573084152,38.8446763978518,-117.25993036026,38.8762165970192
Utah,Mount Timpanogos,3582,2214,2173,40.3908,-111.6459,-111.99797940728,40.6579533557582,-111.99797940728,40.6579533557582
California,Mount Patterson,3560,1929,1203,38.4366,-119.3052,-119.393856639107,38.4885011165131,-119.256355069362,38.4299685123727
Alaska,Mount Russell,3557,3388,2387,62.7984,-151.8845,-151.665911685497,62.7660657808361,-151.551034266445,62.9699532927165
British Columbia,Monarch Mountain,3555,3441,2936,51.8994444444444,-125.875833333333,-126.486351869653,52.271522241038,-125.820273335306,51.8911179012228
Guerrero,Cerro Tiotepec,3545,3320,2577,17.4682666666667,-100.136394444444,-100.644310393582,17.9550309611892,-100.181626532783,17.4474346641491
Nuevo León,Picacho San Onofre,3550,2185,1900,23.8007,-99.8464,-100.212927866289,24.1387996165077,-99.8954952056905,23.7532451714532
New Mexico,Chicoma Mountain,3524,1381,1011,36.0073,-106.3846,-106.744919682954,36.2986204322709,-106.744919682954,36.2986204322709
Utah,Mount Ellen,3513,2089,1506,38.1089,-110.8136,-111.204337625094,38.4156843060146,-110.849248802914,38.1438048860551
Nevada,Currant Mountain,3511,2008,1311,38.9097,-115.4246,-115.890143388262,39.2697604732663,-115.890143388262,39.2697604732663
Nuevo León,Cerro Peña Nevada,3510,2185,1901,23.77,-99.8602777777778,-100.226718204966,24.1081015956561,-99.8971123174172,23.7564070456389
California,San Gorgonio Mountain,3506,3231,2140,34.0992,-116.8249,-117.314739222336,34.5040367155755,-116.968349402522,34.1127745956653
Spain,Mulhacén,3479,3352,2112,37.0533333333333,-3.31138888888889,-3.70146837689299,37.3653170286955,-3.70146837689299,37.3653170286955
Alaska,Mount Torbert,3479,3311,2311,61.4086,-152.4125,-153.591065137283,61.9591831153059,-152.302247794661,61.2686977072821
Sulawesi,Mount Latimojong,3478,3452,2648,-3.385,120.024166666667,119.715829182241,-3.0731804952867,120.127433346337,-3.4417416589347
Arizona,Mount Baldy,3477,918,893,33.9059,-109.5626,-109.95665656338,34.2338344606274,-109.95665656338,34.2338344606274
Panama,Volcán Barú,3474,3375,2289,8.80888888888889,-82.5427777777778,-82.8882791094635,9.15027270745985,-82.5175560830754,8.7774685779327
Nevada,Ruby Dome,3472,1748,1278,40.6217,-115.4754,-115.85564451406,40.9111755099155,-115.85564451406,40.9111755099155
Sumatera,Mount Leuser,3466,3338,2724,3.7975,97.2191666666667,96.9090405688565,4.11002430250112,97.1364809096829,3.74608489711727
Utah,Abajo Peak,3463,1359,1026,37.8395,-109.4624,-109.862471788231,38.1558185388712,-109.862471788231,38.1558185388712
Kamchatka,Koryaksky,3456,3391,3099,53.3166666666667,158.683333333333,158.138194916308,53.6406498186754,158.637520390842,53.2914539198701
Montana,Hilgard Peak,3451,1658,1221,44.9166,-111.4593,-111.873704587368,45.2100517212801,-111.482133355245,44.8508636391779
Nevada,Hole in the Mountain Peak,3448,1709,1355,40.9508,-115.1224,-115.507659710044,41.2424024036596,-115.507659710044,41.2424024036596
New Mexico,Mount Taylor,3446,1339,653,35.2387,-107.6085,-107.994022321224,35.5539603901498,-107.588787074447,35.2075567505044
Chad,Emi Koussi,3445,2402,1266,19.7894444444444,18.5511111111111,18.5285537033867,19.7003292347416,18.239280487684,20.0839709609629
Nevada,Troy Peak,3445,1985,1448,38.3194,-115.5019,-115.553316629158,38.3419557863065,-115.964409712738,38.6811346259606
Oregon,Mount Hood,3429,3233,2635,45.3735,-121.69595,-122.261918698606,45.7677738563339,-121.750533198992,45.3822597843286
Jawa,Mount Slamet,3428,3414,3121,-7.239,109.22,108.910848260807,-6.92842879437692,109.232089710219,-7.29474526300876
Oaxaca,Cerro Zempoaltépetl,3420,3120,2472,17.1324,-96.0125,-96.544411021339,17.6427125163645,-95.9743790505966,17.2006617984658
Montana,Crazy Peak,3418,1893,1563,46.0181,-110.2768,-110.725421693719,46.3294499961854,-110.725421693719,46.3294499961854
Alaska,Mount Tom White,3411,3367,2371,60.6518,-143.6972,-144.625763418787,61.0988344793196,-143.739851792421,60.6241059502808
Spain,Aneto,3404,2791,2171,42.6309916666667,0.656686111111111,0.248331135470153,42.931066531089,0.248331135470153,42.931066531089
Montana,Tweedy Mountain,3401,1516,1121,45.4805,-112.9655,-112.904443687961,45.4649629081147,-113.43151270904,45.8059355667668
Hidalgo,Cerro La Peña de Tepozán,3370,931,764,19.7697222222222,-98.2475,-98.2088076363158,19.7656982271309,-98.787839355909,20.2797761409617
Oaxaca,Cerro la Muralla,3370,2310,1247,17.1344,-97.664,-97.7691714608853,17.0716189244004,-98.1959168902186,17.6447123281984
Guanajuato,Cerro El Zamorano,3368,1463,1063,20.9337055555556,-100.180527777778,-100.69968379442,21.4199641675308,-100.20528563861,20.9465744966971
Alaska,Mount Foresta,3368,3368,3004,60.1912,-139.4323,-140.527803600082,60.7249433459599,-140.527803600082,60.7249433459599
California,Telescope Peak,3366,3457,3036,36.1698,-117.0892,-117.591792380571,36.5744201507799,-117.152932639693,36.156400146789
Utah,Deseret Peak,3364,2062,1816,40.4595,-112.6264,-113.018673451147,40.7571389899718,-113.018673451147,40.7571389899718
Sicilia,Etna,3357,3357,2455,37.7505561444444,14.9939712555556,14.6177212584781,38.0492996452188,15.0362284147097,37.7323039695136
Durango,Cerro Gordo,3354,2786,1803,23.2060555555556,-104.944183333333,-105.266144353035,23.502480765141,-104.916201943576,23.1754878241966
Jawa,Arjuno-Welirang,3339,3338,2887,-7.765,112.589722222222,112.258397772592,-7.43325357781774,112.632101877501,-7.73854992215647
Jawa,Raung,3332,3197,2436,-8.125,114.041666666667,114.167674157317,-8.18931346490913,113.709702703079,-7.79361456936931
Chihuahua,Cerro Mohinora,3306,2693,2190,25.9560555555556,-107.04755,-107.37842790736,26.2553024863841,-107.37842790736,26.2553024863841
Kamchatka,Shiveluch,3307,3275,2751,56.6536333333333,161.362966666667,160.577143626707,57.0785936757341,161.429716081957,56.6454882099203
Nevada,Matterhorn,3305,1471,1293,41.8107,-115.3745,-115.753139711658,42.0930049569475,-115.753139711658,42.0930049569475
California,San Jacinto Peak,3302,3255,3164,33.8147,-116.6794,-117.086099414183,34.1543191491394,-117.086099414183,34.1543191491394
Washington,Mount Baker,3288,3259,3043,48.7768,-121.8145,-122.418095002537,49.1707521700157,-122.418095002537,49.1707521700157
New Mexico,South Baldy,3288,1339,999,33.991,-107.1879,-107.14345875405,34.0144768863442,-107.205700997289,33.9761684810599
Alaska,Mount Miller,3277,3171,2194,60.4605,-142.3012,-143.405962266852,60.9941719776062,-142.342690717695,60.4310104739677
Arizona,Mount Graham,3269,2394,1977,32.7017,-109.8714,-109.837080894023,32.7847883394728,-109.861104369258,32.7374526794391
Nevada,Pilot Peak,3268,1980,1648,41.0211,-114.0774,-114.462227833088,41.3110792755516,-114.059272261936,41.0078167706246
Jawa,Mount Lawu,3265,3213,2890,-7.625,111.191666666667,110.860446140875,-7.29325379827166,111.231766084361,-7.5895078956975
New Mexico,Sandia Crest,3256,1662,1343,35.21,-106.4495,-106.811645564142,35.5059554858087,-106.811645564142,35.5059554858087
Utah,Flat Top Mountain,3238,1726,1224,40.3724,-112.1888,-112.138128255737,40.3481187473276,-112.566552932576,40.6604561604126
Washington,Glacier Peak,3214,2844,2353,48.1125,-121.1138,-121.709600705793,48.5064436569365,-121.709600705793,48.5064436569365
Alaska,Mount Steller,3205,3150,2567,60.5199,-143.0932,-144.107685091105,61.0085924689752,-143.109113486599,60.4828772374549
Oregon,Mount Jefferson,3201,2648,2281,44.6743,-121.7996,-122.359131356228,45.0682936924981,-122.359131356228,45.0682936924981
Zacatecas,Cerro El Refugio,3200,1505,1252,24.5761111111111,-101.104722222222,-101.1547394279,24.611627910453,-101.147335418379,24.6184011367621
Montana,Mount Cleveland,3193,2065,1915,48.9249333333333,-113.848151851852,-113.822883397708,48.8359527587762,-114.289342039026,49.2127823058052
San Luis Potosí,Cerro Grande,3180,1363,1028,23.6668222222222,-100.887261111111,-101.252618180669,24.0033974279614,-100.908581506466,23.6629833962124
California,Lassen Peak,3189,2093,1278,40.4882,-121.505,-122.017310662951,40.8748815635576,-121.501283591034,40.5067961346012
Oregon,South Sister,3158,2535,1478,44.1035,-121.7693,-122.239401578624,44.4406972291138,-122.239401578624,44.4406972291138
Alaska,Mount Kimball,3155,2468,1904,63.239,-144.6419,-144.528696115198,63.3122959259218,-144.658294557247,63.2024405545487
Alaska,Mount Seattle,3155,3155,3045,60.068,-139.1893,-140.280627559866,60.601775761111,-139.27066699373,60.0384901631266
Utah,Navajo Mountain,3154,2032,1827,37.0343,-110.8697,-111.256735663734,37.3441322194095,-111.256735663734,37.3441322194095
Idaho,Cache Peak,3152,1580,1309,42.1856,-113.6611,-114.03136575207,42.4599905747824,-114.03136575207,42.4599905747824
Wyoming,Laramie Peak,3132,1321,1136,42.2681,-105.4425,-105.881417280714,42.5933791723124,-105.881417280714,42.5933791723124
Coahuila,Cerro El Centinela,3122,1981,1727,25.1359,-103.2304,-103.226083666957,25.20753136215,-103.245918042938,25.1217714188801
Montana,Table Mountain,3117,1411,1022,45.7426,-112.4619,-112.90593694939,46.0511035790358,-112.90593694939,46.0511035790358
Alaska,Redoubt Volcano,3108,3108,2909,60.4854,-152.7442,-153.720289622908,60.9563335646416,-152.719344805674,60.5223297622763
Dominican Republic,Pico Duarte,3098,2575,2050,19.0330555555556,-71.0052777777778,-71.0159580621878,18.9325510584677,-71.3038256729978,19.3162546758573
Dominican Republic,Pico Duarte,3098,2579,2052,19.0231,-70.9977,-71.0131271993919,18.9338877288977,-71.2962298275343,19.3062995620443
Baja California,Picacho del Diablo,3095,2707,2463,30.9925,-115.375288888889,-115.697702648082,31.2698542795583,-115.364343664415,31.0289838254698
Montana,Mount Stimson,3093,2094,1989,48.5142,-113.6104,-114.040725889566,48.7978823211011,-113.659318379613,48.5019144747472
British Columbia,Mount Ratz,3090,3036,2230,57.393,-132.3031,-132.814719086931,57.6655202596615,-132.282855652252,57.4622735653255
Montana,Kintla Peak,3080,2001,1826,48.9437,-114.1714,-114.618004570562,49.2348544181603,-114.618004570562,49.2348544181603
Réunion,Piton des Neiges,3069,3069,2765,-21.0988888888889,55.4788888888889,55.1865048329537,-20.8225734773425,55.4434287184997,-21.0734602746357
California,Mount San Antonio,3069,2689,2111,34.2891,-117.6463,-117.624437886391,34.1990837984901,-118.137255249699,34.6939171669723
Hawaiian Is.,Haleakal?,3055,3059,3055,20.7115166666667,-156.2554,-156.662542009634,21.0921499249501,-156.662542009634,21.0921499249501
Alaska,Iliamna Volcano,3053,3053,2917,60.0321,-153.0915,-153.720511532521,60.3426502851844,-153.153965210336,60.0052929581001
British Columbia,Kates Needle,3053,3050,2974,57.0449,-132.0451,-132.551874345426,57.3174492037427,-132.551874345426,57.3174492037427
Bali,Mount Agung,3031,3031,3031,-8.34194444444445,115.507777777778,115.175640434897,-8.01055887972751,115.547584232906,-8.31133599455613
Aguascalientes,Sierra Fría,3025,735,600,22.2738944444444,-102.607261111111,-102.644083845721,22.2757415632753,-102.595570541398,22.2576839789056
Coahuila,Sierra la Madera,3030,2263,1821,27.0345,-102.3922,-102.309847765384,26.9841618246645,-102.38539837637,27.0157730512112
Maluku,Mount Binaiya,3027,3027,2962,-3.17333333333333,129.455,129.185117048498,-2.90204079488407,129.463952341116,-3.22763898341949
Nevada,Hayford Peak,3025,2089,1108,36.6577,-115.2008,-115.653044886157,37.0195897925197,-115.653044886157,37.0195897925197
British Columbia,Ulysses Mountain,3024,2039,1809,57.3464,-124.0928,-124.540960627433,57.5875543316122,-124.540960627433,57.5875543316122
Oman,Jabal Shams,3019,2630,2347,23.2373881944444,57.2637936944444,57.312824773857,23.3165243378975,57.2932591048831,23.2623521380179
California,Eagle Peak,3016,1648,1212,41.2835,-120.2007,-120.718310940683,41.6708203703225,-120.718310940683,41.6708203703225
Bioko,Pico Basilé,3011,2971,2877,3.58333333333333,8.76666666666667,8.40266625359201,3.94793136311007,8.40266625359201,3.94793136311007
Oregon,Sacajawea Peak,3000,1683,1554,45.245,-117.2929,-117.285820451393,45.3287250559391,-117.2444230085,45.2589815232042
Nevada,Star Peak,2999,1697,1325,40.5224,-118.1708,-118.230934674831,40.5327856184073,-118.15422276674,40.5102865566829
Alaska,Mount Hesperus,2996,2522,2422,61.8036,-154.1469,-154.818322382013,62.1178744817087,-154.204682628766,61.8256171652668
Venezuela,Pico da Neblina,2994,2898,2705,0.802747222222222,-66.0064291666667,-66.2430389580226,1.0416286294213,-66.2430389580226,1.0416286294213
Montana,McDonald Peak,2994,2188,2024,47.3826,-113.9191,-114.3338785882,47.6615351186909,-114.3338785882,47.6615351186909
Nevada,Mount Tobin,2980,1605,1259,40.3765,-117.5261,-117.920267965652,40.6768387740436,-117.500489675084,40.3735703441991
Arizona,Chiricahua Peak,2976,1370,1083,31.8456,-109.291,-109.64423203932,32.14654735391,-109.64423203932,32.14654735391
Oregon,Steens Mountain,2968,1747,1450,42.6364,-118.5767,-118.90612458322,42.8774953722024,-118.545189762078,42.623657745265
British Columbia,Skihist Mountain,2968,2718,2164,50.1878,-121.9032,-122.365965595148,50.4827005161954,-122.365965595148,50.4827005161954
Nevada,Granite Peak,2966,1436,1091,41.6681,-117.5889,-117.929877570494,41.9216288968445,-117.616335551918,41.663279810725
East Timor,Pico do Ramelau,2963,2763,2244,-8.90666666666667,125.493333333333,125.228713599763,-8.643237729209,125.228713599763,-8.643237729209
Germany,Zugspitze,2962,2358,2232,47.4211111111111,10.9863888888889,10.4611992428045,47.7719089175316,11.0213283743398,47.4493034983429
Philippines,Mount Apo,2954,2818,2017,6.9875,125.270833333333,125.005382664082,7.25358556586808,125.005382664082,7.25358556586808
Yukon,Keele Peak,2952,1988,1741,63.4314,-130.3243,-130.513884068246,63.4608345193069,-130.894293566987,63.6841099792834
Andorra,Pic de Coma Pedrosa,2943,2212,1759,42.5916666666667,1.44361111111111,1.03551564967641,42.8917445988677,1.03551564967641,42.8917445988677
South Georgia,Mount Paget,2934,3032,3032,-54.4408333333333,-36.5552777777778,-37.015932032466,-54.1689543529624,-37.015932032466,-54.1689543529624
Bulgaria,Musala,2925,2259,1536,42.1797222222222,23.5852777777778,23.234942881467,42.4395912389827,23.5662101062388,42.1925495896379
Philippines,Mount Pulag,2922,2448,2039,16.5836111111111,120.883611111111,120.612200338823,16.8461624573123,120.612200338823,16.8461624573123
Durango,Sinaloa High Point,2920,2532,2181,24.3386111111111,-106.1525,-106.478291352895,24.6363267188649,-106.478291352895,24.6363267188649
Greece,Olympus,2918,2847,2357,40.0855555555556,22.3586111111111,22.018287420269,40.3447437766186,22.018287420269,40.3447437766186
Chiapas,Cerro Tzontehuitz,2910,2152,1233,16.8358,-92.5894,-92.572080668927,16.9247591138468,-92.6049296878671,16.8502119382347
Montana,Mount Edith,2897,1387,1121,46.4318,-111.1862,-111.618245563409,46.7298775289065,-111.27435583137,46.4360392588578
Oregon,Mount McLoughlin,2895,2294,1728,42.4445,-122.3156,-122.844006128998,42.8307876903996,-122.342403538392,42.4494031591948
Espírito Santo,Pico da Bandeira,2891,2392,1979,-20.4355555555556,-41.7977777777778,-42.0682816756846,-20.1803975103056,-41.8363493247434,-20.4425515761685
Michoacán,Cerro Las Conchas,2890,2335,1465,18.7215,-102.974,-103.375461785037,19.1028111364649,-103.375461785037,19.1028111364649
Arizona,Miller Peak,2886,1501,1269,31.3928,-110.293,-110.645670835851,31.6950367844368,-110.27128725239,31.3978939293502
Arizona,Mount Wrightson,2882,2001,1479,31.6959,-110.8482,-111.215509673214,32.0091712577469,-110.863553133301,31.7301247151708
Madagascar,Maromokotro,2876,2418,1641,-14.0227777777778,48.9658333333333,48.6916240208496,-13.7551308392179,48.9690279819896,-14.087447084274
Sulawesi,Moncong Lompotabang,2874,2844,1834,-5.34667906944444,119.931666530556,119.622584726128,-5.03484685192129,119.888583553655,-5.37855378896742
Alaska,Mount Neacola,2873,2742,2370,60.7981,-153.3959,-154.551452708665,61.3488597199291,-153.374528855682,60.7614370217066
Idaho,She Devil,2873,2496,2213,45.324,-116.5406,-116.988423088644,45.6388096158046,-116.988423088644,45.6388096158046
Washington,Mount Stuart,2871,2530,2046,47.4751,-120.9024,-121.490858934536,47.8691216820848,-121.490858934536,47.8691216820848
Honduras,Cerro Las Minas,2860,2369,1948,14.5339444444444,-88.6802,-89.0505825341165,14.8919585905381,-88.6510122829332,14.593999842028
Alaska,Shishaldin Volcano,2869,2869,2625,54.7536,-163.969488888889,-164.409197425765,55.0053671449577,-164.409197425765,55.0053671449577
Slovenia,Triglav,2864,2555,2286,46.3783333333333,13.8363888888889,13.3624489773617,46.7035063413077,13.3624489773617,46.7035063413077
Alaska,Mount Aylesworth,2830,2830,2215,59.9242,-138.7985,-139.884999750255,60.4580134137133,-139.884999750255,60.4580134137133
Cape Verde,Pico do Fogo,2829,2829,2829,14.9492694444444,-24.3403694444444,-24.5965313513682,15.1974335822928,-24.5965313513682,15.1974335822928
Arizona,Kaibab Plateau High Point,2812,1139,1057,36.3958,-112.1509,-112.568652871672,36.7324208263192,-112.568652871672,36.7324208263192
Venezuela,Monte Roraima,2810,2279,1605,5.14194444444444,-60.7641666666667,-61.0134211335943,5.39170670825791,-60.7585287527047,5.24480801013088
New Zealand North,Mount Ruapehu,2797,2235,1567,-39.2894444444444,175.5625,175.24503226886,-39.0411715602406,175.533695007288,-39.2915576047733
Arizona,Mount Lemmon,2792,2047,1684,32.443,-110.7885,-110.888903379955,32.4096401471673,-110.833114148011,32.4502512677749
Washington,Mount Shuksan,2782,2568,2525,48.8314444444444,-121.602988888889,-121.718714338452,48.7210951198462,-121.759612171667,48.7615127853179
Nevada,Jackson Mountain,2773,1497,1162,41.3033,-118.4163,-118.35189279771,41.2910813931173,-118.38473724071,41.2618313896718
Yukon,Mount Nirvana,2773,2145,2007,61.8752388888889,-127.680627777778,-128.173858427241,62.1053730003071,-128.173858427241,62.1053730003071
Venezuela,Mount Roraima,2772,2271,2073,5.21361111111111,-60.7466666666667,-60.9959505578516,5.46337212069791,-60.9959505578516,5.46337212069791
Washington,Jack Mountain,2766,2498,2293,48.7728,-120.9562,-121.559746384166,49.1667526668919,-121.559746384166,49.1667526668919
Macedonia,Korab,2764,2430,1652,41.7908333333333,20.5461111111111,20.1998703817475,42.0476720580514,20.4990075541473,41.7960906908972
Nayarit,Cerro Del Faro,2760,2376,1751,21.3108333333333,-104.049444444444,-104.458151921035,21.6915149759887,-104.458151921035,21.6915149759887
Yukon,Mount Macdonald,2760,2001,1736,64.7256,-132.7781,-133.381676624035,64.9800564627576,-133.381676624035,64.9800564627576
British Columbia,Howson Peak,2759,2528,2218,54.4185,-127.7441,-127.89844233307,54.4362342704963,-128.244647138467,54.7070552037191
California,Mount Eddy,2755,2018,1384,41.3196,-122.479,-122.380002806989,41.270439819498,-122.448589985961,41.349264548734
British Columbia,Thudaka Mountain,2748,1549,1462,57.9272,-126.8485,-127.326172871808,58.1790072014156,-126.854494108929,57.9442142188436
Greenland,Patuersoq,2740,0,0,60.8333,-44.2333,-44.4334846249019,60.9309285793513,-44.4334846249019,60.9309285793513
Alaska,Kichatna Spire,2739,2541,2127,62.4231,-152.7231,-153.942321860798,62.9733796245705,-153.942321860798,62.9733796245705
Washington,Mount Spickard,2737,2264,2109,48.9697,-121.2405,-121.84645250099,49.3636281721436,-121.84645250099,49.3636281721436
Alaska,Mount Isto,2736,2119,1758,69.2025,-143.802,-144.489590338095,69.4435857922555,-143.667971929744,69.276807942737
Honduras,Cerro El Pital,2730,2306,1993,14.3844444444444,-89.1291666666667,-89.49929525755,14.742466296722,-89.49929525755,14.742466296722
British Columbia,Mount Jancowski,2729,2388,2312,56.3372,-129.9817,-129.950003412224,56.2470724444732,-130.478958728292,56.6098075214037
Oregon,Mount Scott,2722,1315,798,42.9227777777778,-122.016111111111,-122.54864146402,43.3090125526057,-122.006374948269,42.9141808158896
Alaska,Mount Chamberlin,2713,2260,1851,69.2775,-144.9107,-145.600697317265,69.5185782649611,-145.600697317265,69.5185782649611
Chihuahua,Cerro San José,2710,1251,851,30.5483,-108.6167,-108.955653051921,30.8416904112801,-108.605499958032,30.5174051046247
Alaska,Sovereign Mountain,2697,2262,1467,62.1311,-148.6044,-149.811978692406,62.6812855729203,-149.811978692406,62.6812855729203
California,Mount Pinos,2696,2298,1349,34.8128,-119.1454,-119.639487824201,35.2175629266953,-119.172585709155,34.891805217516
Haiti,Pic la Selle,2674,2674,2103,18.3602388888889,-71.9766833333333,-72.2740351424343,18.6434675219884,-72.2740351424343,18.6434675219884
Texas,Guadalupe Peak,2667,1543,1292,31.89155,-104.86065,-105.197890943705,32.1791912694018,-104.882370907736,31.8865429509658
Montana,Snowshoe Peak,2665,2022,1654,48.2231,-115.689,-115.614399568252,48.2975844425605,-115.742351207367,48.2121608603353
Macedonia,Velika Rudoka,2660,2238,2000,41.9183333333333,20.7763888888889,20.4294536051071,42.1751639976675,20.8195986973109,41.9100872996328
Washington,Remmel Mountain,2649,1417,1035,48.9234,-120.1968,-120.159536294864,48.8468254692376,-120.193598325543,48.844583372284
Arizona,Mica Mountain,2641,1645,1151,32.22,-110.543333333333,-110.593147629956,32.2362674976467,-110.566621298134,32.231766193227
Sonora,Cerro Pico Guacamayas,2620,1439,1106,29.9533333333333,-108.839444444444,-109.161537349856,30.2325448491604,-109.161537349856,30.2325448491604
Nunavut,Barbeau Peak,2616,1122,834,81.9147611111111,-75.0092333333333,-76.6388295454076,82.1341025746565,-76.6388295454076,82.1341025746565
Switzerland,Grauspitz,2600,2169,2139,47.0527777777778,9.58138888888889,9.60846378042797,47.1094883243134,8.98203311079121,47.4564851482189
Alaska,8517 Peak,2596,2233,1816,60.9283,-142.5237,-142.552083228883,61.0154829342761,-142.588848758164,60.9100213100389
Alaska,Devils Paw,2593,2588,2306,58.7289,-133.8402,-134.369595172481,59.0023027118604,-134.369595172481,59.0023027118604
Alaska,Hanagita Peak,2592,2430,2260,61.067,-143.7075,-144.648418662868,61.513951477011,-143.764594790512,61.0437895361664
British Columbia,Shedin Peak,2588,2140,1772,55.9392,-127.4799,-127.532511778602,55.8534603833948,-127.528607038804,55.923068685235
Alaska,Stony Peak,2587,2207,2085,61.495,-153.6224,-153.681095627486,61.4085256865905,-154.630583606986,61.9657113871112
Arizona,Hualapai Peak,2568,1501,1057,35.0751,-113.8979,-113.957923380373,35.0662968181631,-113.927782034402,35.086588813294
Idaho,Cinnabar Mountain,2563,1426,1071,42.9805,-116.6575,-116.637564228338,43.0221301585552,-117.047015316376,43.2645088438638
Texas,Baldy Peak,2554,877,697,30.6356,-104.1737,-104.197948632025,30.6191359939401,-104.446358068629,30.8714138304892
Alaska,Tetlin Peak,2550,1524,1227,62.6215,-143.1084,-144.195444764318,63.109688547816,-144.195444764318,63.109688547816
Chiapas,Cerro Tres Picos,2550,2516,2220,16.197,-93.6112,-94.0061961711861,16.5770254383834,-94.0061961711861,16.5770254383834
Washington,Mount Saint Helens,2549,2407,1991,46.1914,-122.1956,-122.77002175213,46.585576624127,-122.137623658943,46.1979077605106
Romania,Moldoveanu,2544,2113,1460,45.6,24.7361111111111,24.4161374941245,45.823450677832,24.8051888726976,45.6461805580936
Alaska,Necons Peak,2541,2196,1883,61.1125,-153.469,-154.636273685908,61.6631693079978,-154.636273685908,61.6631693079978
Albania,Zla Kolata,2525,2303,1912,42.485,19.8961111111111,19.8942291001363,42.3778266748749,19.5461552971048,42.7418850852898
Alaska,Mount Igikpak,2523,2303,2032,67.4129,-154.9656,-155.537848374354,67.6287450390552,-155.537848374354,67.6287450390552
Alaska,Mount Pavlof,2515,2515,2430,55.4173,-161.8932,-162.342082746267,55.6702707583473,-162.342082746267,55.6702707583473
Alaska,Mount Veniaminof,2507,2467,2153,56.2194,-159.2975,-159.704071931927,56.444830713637,-159.704071931927,56.444830713637
Slovakia,Rysy,2501,1832,1392,49.1794444444444,20.0880555555556,19.7323122991321,49.4120968797273,20.2002520758549,49.149582393852
Alaska,Isanotski Peaks,2471,2471,2373,54.768,-163.7291,-164.168966107733,55.0197661194412,-163.746718275723,54.7308532011387
Norway,Galdhøpiggen,2469,1987,1754,61.6363888888889,8.3125,7.84379442858538,61.8561127096324,8.28559633503604,61.6684663321247
California,Mount Linn,2468,2101,1266,40.0365,-122.8542,-123.366750976969,40.4271762584596,-122.798417466088,40.1220894550088
Alaska,Mount Chosin Few,2464,2396,2184,60.8299,-145.1335,-145.281715286521,60.7797850413273,-146.06240665462,61.2747785775987
Alaska,Accomplishment Peak,2452,1779,1322,68.4433,-148.0947,-148.068440639702,68.4887965079045,-148.683485078239,68.6558704545862
Honduras,Pico Bonito,2450,2447,1833,15.5575,-86.8756,-87.14045673297,15.813768431383,-87.14045673297,15.813768431383
Alaska,Peak 8010 (Alaska),2441,2380,2365,61.1605,-144.8129,-145.751689820925,61.6053127417732,-145.751689820925,61.6053127417732
Alaska,Bashful Peak,2440,2425,2175,61.3076,-148.8697,-148.899736020441,61.3941495156127,-150.044758573982,61.8580299684575
Washington,Mount Olympus,2432,2282,2099,47.8013,-123.7108,-124.303251173726,48.1951006064459,-124.303251173726,48.1951006064459
British Columbia,Mount Crysdale,2429,1770,1507,55.9383,-123.421,-123.837221906338,56.1701729174907,-123.837221906338,56.1701729174907
California,Clark Mountain,2418,1454,1025,35.5256,-115.5887,-115.532741523589,35.5330228311781,-115.997504287327,35.8590628405988
Arizona,Cape Final,2413,1683,1254,36.1422222222222,-111.908055555556,-112.005545258782,36.1351983087137,-111.99161730603,36.0969071076685
Yukon,Fox Mountain,2404,1284,1067,61.9224,-133.3677,-133.843554644138,62.1453259095515,-133.843554644138,62.1453259095515
Bosnia-Herzegovina,Veliki Magli?,2386,1905,1581,43.2811111111111,18.7330555555556,18.7454463776138,43.3261605089492,18.7977619320888,43.2473838609781
Texas,Emory Peak,2381,1382,1038,29.246,-103.3053,-103.588730823375,29.4939384649072,-103.588730823375,29.4939384649072
Yukon,Mount Frank Rae,2362,1330,1114,64.4706,-138.5553,-138.494791903499,64.4317031632683,-138.980805787321,64.6508644849129
Montana,Northwest Peak,2350,1312,1028,48.9632,-115.9683,-115.992150809817,49.0059547205504,-116.428490517933,49.263562106733
Nunavut,Beitstad Peak,2347,2065,882,78.8007,-79.5292,-79.1037845511491,78.7668562774452,-79.2541990479517,78.7244882171521
Haiti,Pic Macaya,2347,2347,2022,18.3822,-74.0243,-74.2784084284306,18.6253771687118,-74.2784084284306,18.6253771687118
Honduras,Sierra de Agalta High Point,2335,2026,1687,14.9576,-85.9165,-85.8996343364573,14.8700694644,-85.9019527332588,14.9401116702428
Alaska,Mount Griggs,2332,2317,2095,58.3534,-155.0958,-155.621212202913,58.6259299280202,-155.074856287149,58.389085598347
Oaxaca,Cerro Atravesado,2310,2219,1603,16.7652,-94.4514,-94.8337344639161,17.1313922945564,-94.4273456523404,16.7364184507495
Alaska,Cleave Peak,2301,2235,2127,61.1256,-145.3006,-146.238335082955,61.570419728172,-146.238335082955,61.570419728172
Arizona,Vishnu Temple,2296,1635,1358,36.0888888888889,-111.935555555556,-112.351658372889,36.4255351885595,-112.351658372889,36.4255351885595
Svalbard,Jan Mayen,2277,2277,2277,71.0822222222222,-8.17833333333333,-8.79573886155698,71.2795065760591,-8.79573886155698,71.2795065760591
Jamaica,Blue Mountain Peak,2256,2256,2046,18.0464444444444,-76.5788444444444,-76.7890913881457,18.2474927236733,-76.7890913881457,18.2474927236733
Washington,Abercrombie Mountain,2229,1622,1206,48.9284,-117.46,-117.927750439165,49.2348480744058,-117.413182158439,48.8648607947189
New South Wales,Mount Kosciuszko,2228,1792,1437,-36.4561111111111,148.263333333333,148.0095959531,-36.2513195857336,148.257146796238,-36.3957776759649
Yukon,Grey Hunter Peak,2214,1494,853,63.1357,-135.6359,-136.082597718055,63.3357379617821,-135.489685214156,63.1345033490956
Nunavut,Outlook Peak,2210,1627,1070,79.7397,-91.4061,-91.5440848553827,79.7015633516113,-92.5074544940681,79.930384874156
South Dakota,Black Elk Peak,2208,784,584,43.8659,-103.5318,-103.85794906848,44.1006515534019,-103.536341160481,43.8738650066295
British Columbia,Golden Hinde,2197,2183,1744,49.6627,-125.747,-126.309293421845,50.0228199343251,-125.626276656631,49.7229215659674
Washington,Copper Butte,2179,1239,749,48.7025,-118.4656,-118.927521258953,49.0069142463982,-118.927521258953,49.0069142463982
British Columbia,Simpson Peak,2170,1195,1054,59.7234,-131.448,-131.989749455297,59.9939485191395,-131.483274813355,59.7190418842199
Serbia,Mid?or,2169,1690,1317,43.3947222222222,22.6819444444444,22.3246264497042,43.6545126925558,22.3246264497042,43.6545126925558
Aleutian Is.,Mount Vsevidof,2149,2149,2149,53.1256,-168.6938,-169.002019699585,53.309002397538,-169.002019699585,53.309002397538
Alaska,Mount Douglas,2149,2149,2103,58.8598,-153.5353,-154.11550715774,59.1574913584903,-154.11550715774,59.1574913584903
Nunavut,Mount Odin,2143,2135,2103,66.5468,-65.4289,-65.9157839792116,66.7391606381786,-65.9157839792116,66.7391606381786
Montana,West Butte,2129,1063,856,48.9316,-111.5324,-111.506652501471,48.9732755011397,-111.513500744491,48.9238202593404
Alaska,Mount Chiginagak,2111,2111,2053,57.1334,-156.9912,-157.407468699238,57.3567097177609,-157.407468699238,57.3567097177609
Iceland,Hvannadalshnúkur,2110,2110,1771,64.0141666666667,-16.6775,-17.1086336338268,64.2001592404444,-16.7325438130875,63.9832531022214
Montana,Bearpaw Baldy,2109,861,667,48.1487,-109.6509,-109.635787460264,48.1273397529052,-110.030734687616,48.4010100870118
Alaska,Copper Peak,2108,2024,2009,61.3297,-144.9599,-145.903842207207,61.7744787465569,-145.903842207207,61.7744787465569
Honduras,Pico Mogotón,2106,1388,1077,13.7630777777778,-86.3983166666667,-86.660894076625,14.0194954703296,-86.660894076625,14.0194954703296
Sweden,Kebnekaise ? Nordtoppen,2097,1574,1363,67.9044444444445,18.5269444444444,18.0309273025757,68.0882619307708,18.5230193327818,67.8805503930831
Baja California Sur,Sierra La Laguna High Point,2085,1628,1290,23.5391833333333,-109.954183333333,-110.178751259258,23.745382461471,-109.970291477879,23.5243294208939
Alaska,Double Peak,2078,2067,1761,60.7296,-152.5861,-153.739134801363,61.2803792709642,-152.53721423331,60.760239578604
Ukraine,Gora Goverla,2061,1393,1065,48.16,24.5002777777778,24.2038863289162,48.3577854228317,24.2038863289162,48.3577854228317
North Carolina,Mount Mitchell,2037,1443,1092,35.7649,-82.2651,-82.4961530653251,35.9530870926598,-82.4961530653251,35.9530870926598
North Carolina,Clingmans Dome,2025,1385,944,35.5629,-83.4986,-83.7290677941885,35.7510950655412,-83.5161903394561,35.5485229720586
North Carolina,Mount Guyot,2019,1564,1081,35.7052777777778,-83.2575,-83.4883797086721,35.8934672261161,-83.4883797086721,35.8934672261161
Alaska,Truuli Peak,2015,1791,1490,59.9129,-150.4348,-150.582570249253,59.9621392563223,-151.061884370087,60.2232818869526
Tennessee,Mount Le Conte,2010,1614,1192,35.6541666666667,-83.4366666666667,-83.6673981716516,35.8423581328064,-83.4156265747708,35.6668278810699
Alaska,Snow Tower,2003,2003,1984,58.1724,-133.4009,-133.92191287069,58.4458499656723,-133.395380356652,58.1528722292668
North Carolina,Mount Gibbes,2003,1442,1095,35.7391666666667,-82.285,-82.5159781808052,35.927354776299,-82.5159781808052,35.927354776299
Alaska,Mount Harper,1994,1250,1053,64.237,-143.8442,-144.86384311812,64.6690355100433,-143.853365552973,64.2173102340756
Alaska,Pogromni Volcano,1991,1991,1615,54.5705,-164.6926,-165.13062641484,54.8220993915197,-165.13062641484,54.8220993915197
Alaska,Isthmus Peak,1991,1875,1497,60.5772,-148.8915,-148.729070634352,60.6143023934364,-150.039342596391,61.1278399953584
Cuba,Pico Turquino,1974,1974,1678,19.9897611111111,-76.8359166666667,-77.0489361133184,20.1904824418141,-76.8312828723515,19.9715593554386
North Carolina,Richland Balsam,1954,1208,812,35.3672222222222,-82.99,-83.2199063858473,35.5554249889337,-82.9607749183143,35.3956555571592
Baja California Sur,Volcán Las Tres Vírgenes,1951,1723,1483,27.47,-112.5919,-112.814120792673,27.666778310045,-112.575966826819,27.4571393308706
Nunavut,Angilaaq Mountain,1944,1036,640,73.2298,-78.623,-79.2181095631933,73.3993384444118,-78.5059586563761,73.2567831117578
Nunavut,Devon Ice Cap High Point,1920,261,0,75.3429,-82.6186,-82.6145279976769,75.3506493491506,-83.3035912947576,75.5131558139484
New Hampshire,Mount Washington,1917,1571,1270,44.2705,-71.3032666666667,-71.2672801734182,44.233371378009,-71.2766527556559,44.2671220992723
North Carolina,Waterrock Knob,1917,1268,1009,35.4641666666667,-83.1377777777778,-83.3679616229764,35.652365620735,-83.3679616229764,35.652365620735
North Carolina,Roan High Knob,1915,1186,966,36.1044444444444,-82.1222222222222,-82.354272342921,36.2926180835651,-82.148255670844,36.076548862609
Nunavut,Kisimngiuqtuq Peak,1905,1905,1801,70.7993,-71.6502,-72.1569329144672,70.962583212692,-72.1569329144672,70.962583212692
Nunavut,Qiajivik Mountain,1905,1905,1777,72.1809,-75.909,-76.4643871803406,72.3476569563871,-75.8814144914693,72.133357139591
North Carolina,Mount Kephart,1895,1541,1181,35.6308333333333,-83.3897222222222,-83.6203861933875,35.8190257201506,-83.4183836390818,35.6682783960613
Panama,Cerro Tacarcuna,1875,1463,1104,8.1659,-77.2959,-77.6558050210286,8.52402100978471,-77.6558050210286,8.52402100978471
Baja California,Cerro La Sandía,1810,1586,1136,28.4073,-113.4387,-113.411697852918,28.4446981884027,-113.703135299765,28.6406957685546
Aleutian Is.,Tanaga Volcano,1806,1806,1806,51.8838,-178.1429,-178.402108514739,52.0427285165775,-178.402108514739,52.0427285165775
Aleutian Is.,Makushin Volcano,1800,1807,1459,53.8782,-166.9299,-167.243664531876,54.0615680855381,-167.036990734532,53.8665173849656
California,Junipero Serra Peak,1788,1566,1137,36.1457,-121.4191,-121.866100746888,36.5049416433078,-121.866100746888,36.5049416433078
Alaska,Frosty Peak,1769,1769,1540,55.0672,-162.8351,-163.280018956144,55.3201960081365,-163.280018956144,55.3201960081365
New Hampshire,Mount Adams,1767,1475,1172,44.3205555555556,-71.2916666666667,-71.551029500257,44.5058728479546,-71.2775773401331,44.2654331111813
Hawaiian Is.,Pu?u Kukui,1764,1764,1429,20.8904,-156.5863,-156.993931967765,21.2710207513145,-156.993931967765,21.2710207513145
Alaska,Chunekukleik Mountain,1762,1740,1638,59.2919,-135.9529,-135.848436179359,59.2242187565536,-135.88784847445,59.2197560318712
Nicaragua,Volcán San Cristóbal,1745,1720,1392,12.7026,-87.0057,-86.9883417259168,12.7467563603402,-87.2671215584423,12.9590501993345
Virginia,Mount Rogers,1741,1000,646,36.6601,-81.5449,-81.5522285320055,36.6857369813495,-81.5494304590427,36.6699673161053
Aleutian Is.,Great Sitkin Volcano,1740,1740,1740,52.0763,-176.1108,-176.371128323294,52.2352213133256,-176.371128323294,52.2352213133256
California,Santiago Peak,1734,1470,1276,33.7105,-117.5342,-117.921484286233,34.0343208460516,-117.921484286233,34.0343208460516
Aleutian Is.,Mount Cleveland,1730,1730,1730,52.823,-169.9465,-170.252263335691,53.0065966150396,-170.252263335691,53.0065966150396
Yukon,Manuel Peak,1722,1070,890,67.9833,-136.5833,-136.989391026572,68.1340092630686,-136.58652457482,67.9753652695488
Nunavut,McBeth-Inugsuin Peak,1721,1549,1029,69.6524,-69.3059,-69.7849622232862,69.8157466033398,-69.2982761341263,69.7222738074487
Galápagos,Volcán Wolf,1707,1707,1606,0.0419444444444444,-91.3344444444444,-91.4917852182415,0.200073182520059,-91.4917852182415,0.200073182520059
Veracruz,Sierra de Santa Martha,1690,1570,1171,18.3455,-94.8576,-94.819513900861,18.3705674666212,-95.3934984234922,18.8554243353805
Baja California Sur,Cerro Giganta,1690,1578,1401,26.1064,-111.5844,-111.77898550707,26.2806070351709,-111.571252018687,26.1205252497417
Tennessee,Thunderhead Mountain,1684,1309,945,35.5686111111111,-83.7063888888889,-83.9321041603227,35.7516776493253,-83.7109678943619,35.5874030647768
Alaska,Mount Tozi,1682,1229,1060,65.6865,-150.9498,-151.74106274764,66.0080925459285,-150.91533142487,65.673805837587
North Carolina,Big Bald,1681,1113,859,35.9897222222222,-82.4902777777778,-82.721989148268,36.1779004141251,-82.4968774587389,36.0068905439019
Wyoming,Panorama Point,1656,42,0,41.0077,-104.0314,-104.034312420207,41.0099961356429,-104.461380278281,41.3311075382961
Labrador,Mount Caubvick,1652,1614,1214,58.8877851851852,-63.7097481481482,-63.9858294452199,59.0279391387078,-63.8330980979481,58.9249369427502
Alaska,Veniaminof Peak,1643,1643,1476,57.0151,-134.9882,-135.659680789245,57.37569284113,-135.659680789245,57.37569284113
Washington,Round Mountain,1629,1549,1478,48.3265,-121.7507,-121.811563186532,48.3061145896278,-121.754272415333,48.3083788692936
New York,Mount Marcy,1629,1121,760,44.1127666666667,-73.9237333333333,-74.1436040497753,44.2695546539946,-73.9744168730837,44.1482593005517
Tasmania,Mount Ossa,1617,1232,986,-41.8708333333333,146.033333333333,145.840493248288,-41.7270229974335,145.996681314659,-41.823965314271
Alaska,Mount Prindle,1611,917,773,65.461,-146.4758,-146.561905396747,65.4408408940036,-147.372600949228,65.8261358022674
Aleutian Is.,Mount Carlisle,1610,1610,1610,52.8913,-170.058,-170.364246932495,53.0748935166437,-170.364246932495,53.0748935166437
Maine,Katahdin,1606,1434,1188,45.9044,-68.9213333333333,-69.1712797052503,46.0765514376415,-69.1712797052503,46.0765514376415
Alaska,Kuskokwim High Point,1600,1477,1302,60.1159,-159.3241,-159.602844559424,60.2530669315771,-159.602844559424,60.2530669315771
Hawaiian Is.,Kawaikini,1598,1483,1284,22.0586,-159.4973,-159.651834731799,22.2013498550673,-159.651834731799,22.2013498550673
New Hampshire,Mount Lafayette,1598,1310,1069,44.1605555555556,-71.6444444444444,-71.6991629469189,44.1864164506209,-71.6647646025159,44.1751781718369
Yukon,Cap Mountain,1577,1319,1053,63.4063,-123.2061,-123.632079399101,63.5950045907582,-123.203997242935,63.4251842908356
Tennessee,Unaka Mountain,1576,1056,791,36.1338888888889,-82.2969444444444,-82.5290818186678,36.322061358317,-82.2980001303815,36.153310000803
Aleutian Is.,Gareloi Volcano,1573,1573,1573,51.788,-178.794,-179.052655906414,51.9469320983355,-179.052655906414,51.9469320983355
New York,Algonquin Peak,1559,1029,871,44.1436111111111,-73.9866666666667,-74.206652458947,44.3003980208736,-73.9936043430092,44.1543655063011
Panama,Cerro Hoya,1559,1534,1175,7.3179,-80.681,-80.9955272000857,7.63241234866578,-80.9955272000857,7.63241234866578
Aleutian Is.,Korovin Volcano,1533,1533,1533,52.3816,-174.1653,-174.418406792894,52.5347779917004,-174.418406792894,52.5347779917004
Alaska,Black Mountain,1530,1081,911,68.5598,-160.3281,-160.701948709711,68.6946254639245,-160.338264581833,68.5493553100728
Oklahoma,Black Mesa,1516,199,161,36.9318,-102.9979,-103.007047331356,36.9267084647915,-102.990211526267,36.9289613010196
Hawaiian Is.,Kamakou,1512,1512,1380,21.1065,-156.8682,-157.276430733518,21.4871055540616,-157.276430733518,21.4871055540616
North Carolina,Gregory Bald,1509,1168,797,35.5205555555556,-83.8652777777778,-84.090857522718,35.7036239302787,-83.8726075675694,35.5032952970988
New Hampshire,South Twin,1493,1109,779,44.1877777777778,-71.5544444444444,-71.8132205778772,44.3731007550564,-71.5185096170159,44.1483987160802
West Virginia,Spruce Knob,1482,932,648,38.69985,-79.5329,-79.4927122205615,38.7200665323174,-79.5185886648902,38.6975520246491
New York,Whiteface Mountain,1482,1223,1122,44.3658333333333,-73.9030555555556,-74.1238759066176,44.5226124719755,-73.8786572015011,44.3608361015297
New York,Dix Mountain,1481,1187,787,44.0825,-73.7866666666667,-74.0449804867344,44.2678274800736,-73.7975901639515,44.0768746108758
Alaska,Kootznoowoo Peak,1478,1477,1392,57.7891,-134.4546,-134.970020394068,58.0625822251307,-134.478549112636,57.7763029922208
New Hampshire,Carter Dome,1475,1161,824,44.2675,-71.1791666666667,-71.4382945788139,44.4528195647587,-71.2590347514512,44.2865960553959
Guadeloupe,La Grande Soufrière,1467,1467,1046,16.04495,-61.6638444444444,-61.8006970798094,16.1769780422783,-61.8006970798094,16.1769780422783
New Hampshire,Mount Moosilauke,1463,1220,881,44.0233333333333,-71.8313888888889,-72.089443995059,44.2086633421799,-71.8111156848654,44.0379563108217
Georgia,Brasstown Bald,1458,895,753,34.8744,-83.8111,-83.8265802719856,34.8931932185551,-83.8211088470616,34.8819262842405
Alaska,Mount Angayukaqsraq,1448,1148,850,67.7083,-159.4053,-159.790554714424,67.851617749994,-159.439875433616,67.6951610480721
Dominica,Morne Diablotins,1447,1447,1446,15.5038888888889,-61.3980555555556,-61.5345426786616,15.635925047068,-61.5345426786616,15.635925047068
Alaska,Mount Osborn,1437,1427,1159,64.9922,-165.3294,-165.627368129758,65.1175174038879,-165.627368129758,65.1175174038879
New Hampshire,Mount Carrigain,1426,1191,821,44.0936111111111,-71.4469444444445,-71.7053069380827,44.2789381161514,-71.4297770358259,44.0834850821909
New York,Giant Mountain,1411,1245,1028,44.1611111111111,-73.7202777777778,-73.978936568534,44.3464352293311,-73.978936568534,44.3464352293311
Alaska,Mount Reid,1400,1398,1199,55.7065,-131.2472,-131.736337165259,55.9791589305916,-131.736337165259,55.9791589305916
Martinique,Montagne Pelée,1395,1395,1247,14.8091666666667,-61.1655555555556,-61.3012208580054,14.9393152445222,-61.3012208580054,14.9393152445222
Saskatchewan,Saskatchewan High Point,1392,147,0,49.5511111111111,-109.987222222222,-110.000557593888,49.5491772428316,-110.260667275926,49.7286775789091
Alaska,Koniag Peak,1378,1378,1212,57.3548,-153.3235,-153.716079257018,57.5652496356545,-153.716079257018,57.5652496356545
Great Britain,Ben Nevis,1345,1345,1326,56.7969444444444,-5.00361111111111,-5.2232057190137,56.9168611913892,-5.2232057190137,56.9168611913892
Vermont,Mount Mansfield,1340,1197,1060,44.5438,-72.8144,-73.0747584774695,44.7291077194673,-73.0747584774695,44.7291077194673
Puerto Rico,Cerro de Punta,1338,1194,935,18.1722,-66.5917,-66.7161202139361,18.2904708274842,-66.7161202139361,18.2904708274842
California,Copernicus Peak,1336,1018,739,37.3468,-121.63,-122.084114663857,37.7059316775984,-121.641794804678,37.3531516615756
Bolivia,Serrania de Santiago,1320,983,913,-18.1197222222222,-60.0202777777778,-60.1338289832229,-18.0092365941469,-60.01342658287,-18.140276493683
Aleutian Is.,Herbert Volcano,1311,1311,1311,52.7405,-170.1142,-170.419381812003,52.9241003554519,-170.419381812003,52.9241003554519
Guadalupe I.,Isla Guadalupe High Point,1310,1310,1310,29.1016,-118.3132,-118.480628313854,29.2478802271103,-118.480628313854,29.2478802271103
Great Britain,Ben Macdui,1309,950,749,57.0699888888889,-3.66906388888889,-3.72079217722301,57.1024401217578,-3.67540958836762,57.0620416044521
Aleutian Is.,Mount Kanaga,1307,1307,1307,51.9238,-177.1623,-177.42174016536,52.0827270204675,-177.42174016536,52.0827270204675
Aleutian Is.,Mount Akutan,1296,1296,1240,54.133,-165.9854,-166.418755262825,54.3846303887043,-166.418755262825,54.3846303887043
Maine,Sugarloaf Mountain,1294,1064,778,45.0317333333333,-70.3132666666667,-70.5758421712772,45.2170200662198,-70.5758421712772,45.2170200662198
Vermont,Killington Peak,1289,1082,544,43.6047222222222,-72.8202777777778,-73.0765249670159,43.7900700846755,-72.8497113532997,43.6395954152929
Virginia,Apple Orchard Mountain,1287,1063,857,37.5172222222222,-79.5111111111111,-79.7212371115341,37.683404600488,-79.7212371115341,37.683404600488
Québec,Mont Jacques-Cartier,1272,803,528,48.9875611111111,-65.9481777777778,-66.1238067545102,49.1014011608124,-65.928696788069,49.0161091257832
New York,Slide Mountain,1274,1101,724,41.9991833333333,-74.3858666666667,-74.3266737203455,41.989309756134,-74.3447711979609,41.9960699399815
Kentucky,Black Mountain,1262,742,502,36.9142,-82.8938,-82.9139508723087,36.9430783372267,-82.9335848766229,36.9205460786836
Cuba,Gran Piedra,1249,1249,1049,20.0115,-75.627,-75.8498217188659,20.2210609456363,-75.8498217188659,20.2210609456363
Hawaiian Is.,Ka?ala,1237,1237,1098,21.5079,-158.1426,-158.492614411276,21.8355081082785,-158.15162260902,21.4881659155192
St.Vincent,La Soufrière,1234,1234,1234,13.3477388888889,-61.1761055555556,-61.3047121522493,13.4726680469243,-61.3047121522493,13.4726680469243
Virginia,Hawksbill,1234,1034,728,38.5552777777778,-78.3952777777778,-78.572577697802,38.6931971477941,-78.3944168332144,38.5987433478019
Colorado,Mount Sunflower,1232,40,0,39.022,-102.0371,-102.038659070075,39.0297916543036,-102.316651603393,39.2388846982183
Surinam,Julianatop,1230,1081,909,3.68277777777778,-56.5355555555556,-56.6505661446342,3.79784645151659,-56.5312798313812,3.67350835954421
Alaska,Peak 4030,1228,847,618,64.4535,-159.4152,-159.664741782934,64.5612410570973,-159.435243841579,64.4493276432948
Aleutian Is.,Anvil Peak,1221,1221,1221,51.9859,179.6021,179.432191132452,52.0923225953177,179.432191132452,52.0923225953177
Aleutian Is.,Kiska Volcano,1220,1220,1220,52.1027,177.603,177.432645945093,52.2091199587483,177.432645945093,52.2091199587483
Great Britain,Ben Lawers,1214,1108,1023,56.5455555555556,-4.22083333333333,-4.43993937057512,56.6649384752535,-4.19540086964837,56.5304207068258
Baja California,Isla Cedros High Point,1200,1200,1155,28.1301,-115.2206,-115.418745422288,28.3042448582858,-115.418745422288,28.3042448582858
Labrador,Mealy Mountains High Point,1190,740,574,53.6465,-58.5536,-58.5073805469375,53.6672011602929,-58.567878813589,53.613300026139
Great Britain,Càrn Eige,1183,1097,915,57.2876583333333,-5.11607777777778,-5.33860007300744,57.4075619719357,-5.13059104164859,57.2955145369599
Québec,Mont Raoul-Blanchard,1175,736,509,47.3097222222222,-70.8317111111111,-71.0617645929474,47.4637944279137,-71.0617645929474,47.4637944279137
Belize,Doyle's Delight,1174,696,322,16.4941333333333,-89.0455777777778,-89.0235216468441,16.4837855097761,-89.0399112906976,16.4928229689954
British Columbia,Mount Moresby,1164,1164,1164,53.0191,-132.0856,-132.371427616571,53.1907896619676,-132.371427616571,53.1907896619676
St.Kitts-Nevis,Mount Liamuiga,1156,1156,1126,17.3684166666667,-62.8029777777778,-62.9407846084147,17.5004239829005,-62.7877802358997,17.3830085688657
Chiapas,Tabasco High Point,1140,1112,1008,17.4105555555556,-92.8394444444444,-92.8479597353679,17.3617180223135,-92.8950048622945,17.359451613351
Cuba,Pico San Juan,1140,1029,470,21.9853,-80.1327,-80.1597569108402,21.9465096694332,-80.2373014607642,22.0842005872152
Québec,Mont Yapeitso,1135,451,408,52.3223,-70.4451,-70.5939008127995,52.4131981128727,-70.4432664854208,52.3279167735015
Rondônia,Pico do Tracuá,1126,764,501,-10.8316666666667,-63.5769444444445,-63.6720683492006,-10.7358678653894,-63.5600702822667,-10.8601889132025
Québec,Mont Veyrier,1104,362,310,51.5309,-68.0763,-68.2400113387836,51.6333844822129,-68.0883349854944,51.5391234730101
Great Britain,Snowdon,1085,1082,1025,53.0684972222222,-4.07623055555556,-4.24003876599837,53.1676316390653,-4.24003876599837,53.1676316390653
South Carolina,Sassafras Mountain,1083,693,369,35.0651,-82.7773,-83.0063501762045,35.253314613841,-82.7865621236109,35.050722711581
Tennessee,Cross Mountain,1077,815,732,36.1983333333333,-84.2305555555556,-84.447129542246,36.3722038247602,-84.2187145729924,36.1944125033828
North Dakota,White Butte,1069,120,0,46.387,-103.3027,-103.295614508962,46.3896536355939,-103.533534500032,46.5446035436069
Massachusetts,Mount Greylock,1063,862,742,42.6373,-73.1659,-73.1426689579257,42.6499455310875,-73.1548669080149,42.6319432365021
Revillagigedo Is.,Volcán Everman,1050,1015,740,18.8,-110.9833,-111.078450263175,18.8923508310302,-110.981165881171,18.7794470006933
Labrador,Man O'War Peak,1050,1050,702,56.9686,-61.6692,-61.9308564124101,57.10881767674,-61.5887376250706,56.9608963207746
Ireland,Carrauntoohil,1039,1037,965,51.9994444444444,-9.74277777777778,-9.89109211528011,52.0922352283542,-9.71970703962529,51.9844782112823
Maryland,Hoye-Crest,1027,296,222,39.2374,-79.4855,-79.5077953513549,39.2335697278478,-79.4933183497409,39.2380752852834
Tennessee,Frozen Head,1013,619,566,36.1225,-84.4577777777778,-84.4863842683402,36.1308328274536,-84.6757032913261,36.2973617413636
Alaska,Blackburn Hills,1004,938,816,63.4107,-159.6559,-159.889234761702,63.5148894021303,-159.648195257091,63.4051825183596
South Carolina,Hogback Mountain,982,692,622,35.17,-82.2905555555556,-82.2669028168222,35.1601278128814,-82.2861103772186,35.1601300305912
Pennsylvania,Mount Davis,979,269,267,39.786,-79.1768,-79.1934351893032,39.784422662168,-79.3572329799132,39.9238841455089
Great Britain,Scafell Pike,978,930,906,54.4541666666667,-3.21166666666667,-3.2522692733267,54.4304879208115,-3.24072844000584,54.4529503864436
Northern Marianas,Mount Agrihan,977,977,975,18.7681,145.6732,145.586422530211,18.8525954610503,145.683679831776,18.762272571557
St.Lucia,Mount Gimie,950,949,783,13.8636111111111,-61.0116666666667,-61.1467591889448,13.9937727205679,-61.1467591889448,13.9937727205679
Trinidad-Tobago,Aripo Peak,940,928,787,10.7230777777778,-61.24745,-61.450669039484,10.9244792415568,-61.2471300219749,10.7392151433802
Québec,Mont Tremblant,932,717,386,46.2488888888889,-74.5594444444444,-74.7736551534841,46.3951032486602,-74.5688406265938,46.2176261035697
Montserrat,Soufriere Hills Volcano,914,914,888,16.7122222222222,-62.1755555555556,-62.3128785069759,16.8442399686684,-62.3128785069759,16.8442399686684
Alaska,Kusilvak High Point,885,700,636,62.9285,-161.7461,-161.717279692954,62.9079965005219,-162.013654887416,63.0490520227252
Yukon,Melville Hills High Point,876,134,0,69.2425,-121.5391,-121.756333970431,69.3202195415216,-121.756333970431,69.3202195415216
NA,Mount Scenery,870,870,870,17.6347222222222,-63.2377777777778,-63.3757871092971,17.7667252200502,-63.3757871092971,17.7667252200502
French Guiana,Bellevue de L'Inini,851,703,313,3.54388888888889,-53.5747222222222,-53.6495654611981,3.62016644099497,-53.5843072033674,3.5161709670337
Paraguay,Cerro Tres Kandú,842,689,647,-25.9019444444444,-56.16,-56.1716285797359,-25.9214860376013,-56.2364510289906,-25.8312024602888
Grenada,Mount Saint Catherine,840,839,685,12.1622611111111,-61.675,-61.9123046163399,12.3944320899971,-61.6846936145784,12.1685434960575
Arkansas,Signal Hill,839,719,582,35.1671,-93.6447,-93.6378415559795,35.1434390932689,-93.7339654992982,35.2403022605749
Manitoba,Baldy Mountain,831,107,0,51.47,-100.72,-100.808833257546,51.5269063335617,-100.808833257546,51.5269063335617
New Brunswick,Mount Carleton,820,570,326,47.3780277777778,-66.8761055555555,-67.0859532566172,47.5190049276474,-66.9066304282781,47.3820263041265
Newfoundland,The Cabox,812,774,451,48.8331,-58.4843,-58.5207497367805,48.85175320695,-58.4866853092054,48.8674953513592
Oklahoma,Sugar Loaf Mountain,780,629,574,35.0263888888889,-94.4686111111111,-94.558821210819,35.100944270828,-94.558821210819,35.100944270828
North Dakota,Boundary Butte,774,72,0,48.9994444444444,-100.43,-100.531747487289,49.0674240296421,-100.531747487289,49.0674240296421
Northwest Territories,Melville Island High Point,762,236,217,75.3694,-115.0827,-115.073300627593,75.3762532980944,-115.349263896165,75.4365744038331
Alabama,Cheaha Mountain,733,460,337,33.4854,-85.8086,-85.8212452058196,33.5018536478163,-85.8158635154644,33.4928380280118
New York,Mount Frissell,727,566,445,42.0496,-73.4828,-73.720997283696,42.2256753698645,-73.720997283696,42.2256753698645
Northwest Territories,Durham Heights,724,709,290,71.1358,-122.9531,-123.191297026621,71.2134880995712,-123.191297026621,71.2134880995712
Falkland Is.,Mount Usborne,705,666,579,-51.6919444444444,-58.8338888888889,-58.9321653046343,-51.6294825787951,-58.8419132040724,-51.6812036960808
Minnesota,Eagle Mountain,702,153,0,47.8974,-90.5606,-90.563341289661,47.8910593668723,-90.62692494924,47.9427542228489
Ontario,Ishpatina Ridge,693,317,186,47.3169444444444,-80.7488888888889,-80.7291167757531,47.3124004331117,-80.7621833272014,47.3236446934843
Alaska,Tooth Benchmark,673,404,211,63.592,-170.3804,-170.351884338025,63.6046910484346,-170.563932203087,63.6741015060784
Pennsylvania,Shade Mountain - Snyder County High Point,667,476,234,40.6988888888889,-77.2216666666667,-77.2327322425815,40.7152326036087,-77.2386416705916,40.6837140151945
Aleutian Is.,Buldir Volcano,656,656,656,52.3482,175.9105,175.741116658039,52.4535387602415,175.741116658039,52.4535387602415
Northwest Territories,Victoria Island High Point,655,197,0,71.8528,-112.6073,-112.625843371191,71.8492591931936,-112.791745509878,71.9096645800862
Maryland,Quirauk Mountain,652,452,194,39.6966666666667,-77.5125,-77.5324959576649,39.6992318457553,-77.5237510047514,39.6969813502815
Ontario,Kwagama Hill,642,324,156,47.4147222222222,-84.5588888888889,-84.6434563004485,47.4720309001944,-84.6434563004485,47.4720309001944
Nunavut,Mathiassen Mountain,625,184,180,64.7403,-83.1573,-83.1422883429613,64.742227686486,-83.2842590083318,64.795991201322
Michigan,Mount Arvon,603,146,0,46.7557,-88.1553,-88.1518310620378,46.7625815356994,-88.2435514208887,46.816520717354
Michigan,Mount Curwood,603,102,0,46.7030555555556,-88.2394444444444,-88.3276098606803,46.7638768974807,-88.3276098606803,46.7638768974807
Netherlands Leeward Is.,Mazinga,600,605,600,17.4763888888889,-62.9597222222222,-63.0976107266716,17.6083944601653,-63.0976107266716,17.6083944601653
Wisconsin,Timms Hill,595,46,0,45.4508,-90.1954,-90.262377404966,45.4981526954661,-90.262377404966,45.4981526954661
Michigan,Summit Peak,595,152,0,46.7472222222222,-89.7716666666667,-89.7681991371981,46.7406104231911,-89.8402350918351,46.7945632239204
Wisconsin,Rib Mountain,586,226,0,44.9208333333333,-89.695,-89.6892363901333,44.9294266992189,-89.7526064519405,44.9631564327162
Greenland,Point 574,574,0,0,82,-59.1667,-59.4866286262407,82.0451439918469,-59.4866286262407,82.0451439918469
Wisconsin,Mount Whittlesey,571,164,0,46.3008333333333,-90.6175,-90.6818683532946,46.3462012972319,-90.6818683532946,46.3462012972319
Ontario,Sleeping Giant,563,384,384,48.3508333333333,-88.8975,-88.9884768222952,48.4116351063573,-88.9040439259136,48.3532162985292
New Jersey,High Point,549,373,198,41.3209,-74.6616,-74.6745614895678,41.3336401018488,-74.6566434018713,41.3201345361547
Missouri,Taum Sauk Mountain,540,165,0,37.5713,-90.7291,-90.8108435429643,37.6369090055626,-90.8108435429643,37.6369090055626
Ontario,Silver Peak,539,337,192,46.1111111111111,-81.2894444444444,-81.3656410593675,46.1638504713179,-81.2782561486166,46.1076468811407
Nova Scotia,White Hill,534,137,0,46.7040166666667,-60.5987555555556,-60.7027847836391,46.7764289842555,-60.7027847836391,46.7764289842555
Wisconsin,Blue Mounds,524,232,0,43.0280555555556,-89.8525,-89.8593104328764,43.0365617074615,-89.9114968469833,43.0725523956862
British Virgin Is.,Mount Sage,521,521,521,18.4094722222222,-64.6555777777778,-64.7802632057144,18.527649141784,-64.7802632057144,18.527649141784
Michigan,Grove Hill,521,55,0,44.1375,-85.3447222222222,-85.3369113017484,44.1408746121192,-85.3994318707147,44.1768604747767
Michigan,Briar Hill,519,143,0,44.3661111111111,-85.6794444444444,-85.6798835935356,44.374795452237,-85.739516856587,44.4085270705691
Minnesota,Moose Mountain,515,336,197,47.6511111111111,-90.735,-90.8008788954451,47.6965574709763,-90.7342679947173,47.6448601762531
Uruguay,Cerro Catedral,514,337,163,-34.3830555555556,-54.6738888888889,-54.6645907923509,-34.3956307575269,-54.7270862747869,-34.3392772869171
Iowa,Hawkeye Point,509,18,0,43.4602,-95.7089,-95.7126683892007,43.4552045081134,-95.7652225427009,43.5024446182895
NA,Hall Island High Point,507,507,507,60.6647,-173.0887,-173.175963257659,60.7071670524408,-173.175963257659,60.7071670524408
Ontario,Peak 489,489,275,221,46.0666666666667,-81.3833333333333,-81.3786158589225,46.0654520189598,-81.3850781526375,46.0654521027232
Michigan,Cuyahoga Peak,485,306,160,46.8136111111111,-89.7130555555556,-89.7817084541095,46.8609515134617,-89.7128589980358,46.818243766454
Iowa,Carroll County High Point,475,26,0,41.9925,-95.0733333333333,-95.1215740988823,42.0285471222479,-95.1215740988823,42.0285471222479
Kansas,Pottawatomie County High Point,475,29,0,39.5063888888889,-96.3875,-96.394534108316,39.5031911957138,-96.4468960451458,39.552714460156
Virgin Is.,Crown Mountain,474,474,466,18.3571,-64.9732,-65.0978475269928,18.4752776949003,-64.9771263998882,18.34883320228
Ohio,Campbell Hill,472,49,0,40.3703,-83.7201,-83.7153317888888,40.3649415485958,-83.8243670784272,40.4504477790917
Maine,Cadillac Mountain,466,464,360,44.3513888888889,-68.2266666666667,-68.4282717150208,44.4948849955953,-68.233376410814,44.3488238715601
Michigan,Huron Mountain,460,267,197,46.8783333333333,-87.9216666666667,-88.0094634469737,46.9396028622827,-87.9175341353122,46.8811667916346
Ontario,Pie Island High Point,455,276,250,48.2352777777778,-89.1608333333333,-89.2516046738884,48.2960809240441,-89.1539012011039,48.2309158534173
Michigan,Mount Bohemia,447,268,233,47.3916666666667,-88.0136111111111,-88.1022586983917,47.4529300703085,-88.0094391468203,47.3877539581689
Wisconsin,Devil's Lake West Bluff,447,158,155,43.4202777777778,-89.7386111111111,-89.7364498682646,43.4286035096944,-89.7364501880549,43.4196026902303
Connecticut,North Preston Hill,441,329,173,41.7208333333333,-73.5133333333333,-73.7132212946316,41.8683612397797,-73.4994552254146,41.7109736476242
Michigan,Mount Desor,425,161,0,47.9558333333333,-89.0116666666667,-89.008118151435,47.9627134196624,-89.1019464361438,48.0166398001188
Guam,Mount Lamlam,406,406,343,13.3397,144.6655,144.621508451804,13.3824951372801,144.663053960211,13.3327852458121
Missouri,Mudlick Mountain,400,273,178,37.2619444444444,-90.5244444444444,-90.6018989078061,37.3239557093407,-90.5201039072164,37.2676659743478
Campeche,Cerro Champerico,390,74,0,17.9088888888889,-89.47,-89.4734447879542,17.9123673610748,-89.8351461573481,18.2553551657194
Indiana,Hoosier Hill,383,17,0,40.0012,-84.8487,-84.9048891006327,40.0458119870153,-84.9048891006327,40.0458119870153
Illinois,Charles Mound,376,65,0,42.5041,-90.2398,-90.2441188492028,42.5009041062349,-90.2958635518252,42.5459017518205
Michigan,Empire Bluffs,340,165,164,44.7997222222222,-86.0713888888889,-86.1520414833995,44.857059952536,-86.0761281870355,44.7963476273504
Illinois,Williams Hill,324,150,0,37.5825,-88.4758333333333,-88.4660398663872,37.5857882129121,-88.5481760926574,37.6398259184702
Indiana,Washington County High Point,320,51,0,38.6416666666667,-85.9872222222222,-86.1101175913307,38.7390265549498,-86.1101175913307,38.7390265549498
Rhode I.,Jerimoth Hill,247,39,0,41.8493,-71.7789,-72.0155052916143,42.0260152102508,-72.0155052916143,42.0260152102508
Mississippi,Woodall Mountain,246,76,0,34.7877,-88.2416,-88.2442769874734,34.7899985691164,-88.3208226167499,34.8530716866184
Ohio,Peninsula Hill,244,70,0,41.245,-81.5519444444444,-81.5443682865483,41.2507174427251,-81.71766266776,41.3676531723271
Quintana Roo,Cerro El Charro,240,73,0,18.1019444444444,-88.8930555555556,-89.1792515867699,18.3750814789591,-89.1792515867699,18.3750814789591
Mississippi,Choctaw County High Point,220,54,0,33.1283333333333,-89.3105555555556,-89.3485584396529,33.1617339214473,-89.3485584396529,33.1617339214473
Yucatán,Cerro Benito Juaréz,210,65,0,19.9363888888889,-89.3327777777778,-89.3291001924197,19.937608310497,-89.372093884762,19.9737365083095
Rhode I.,Beacon Pole Hill,168,55,0,41.9952777777778,-71.4516666666667,-71.4586067584595,41.9991038675461,-71.6885654614475,42.1699170836128
Louisiana,Driskill Mountain,163,63,0,32.4249,-92.8967,-92.8998365339563,32.4267485578742,-92.9823050764459,32.4988600666848
Louisiana,Bossier Parish High Point,143,68,0,32.9366666666667,-93.7416666666667,-93.8305473587681,33.0127821989071,-93.8305473587681,33.0127821989071
Prince Edward I.,Prince Edward Island High Point,140,52,0,46.3311111111111,-63.4188888888889,-63.5280688374538,46.4084712272336,-63.5280688374538,46.4084712272336
Delaware,Near the Ebright Azimuth,137,18,0,39.836,-75.5222,-75.6782548342188,39.9544644852842,-75.6782548342188,39.9544644852842
District of Columbia,Point Reno,126,36,0,38.9517,-77.076,-77.2544035085243,39.0895178229701,-77.2544035085243,39.0895178229701
Florida,Britton Hill,105,26,0,30.9848,-86.2824,-86.2809866899152,30.983762722562,-86.3569374525199,31.0491334250216
Delaware,Iron Hill,104,79,0,39.6402777777778,-75.7522222222222,-75.7473874009496,39.6440154745167,-75.907834414318,39.7587469956264
Florida,Sugarloaf Mountain,94,51,0,28.6491666666667,-81.7330555555556,-81.7375049750411,28.6497530653512,-81.7528507612626,28.665541630548
Navassa I.,Navassa Island high point,85,82,0,18.3968,-75.0125,-75.0172792272767,18.3967547530494,-75.2328486869655,18.6066814243488
