Continent,state,Name,summit,broadrelief,steeprelief,lat,lon,broadcoord.X,broadcoord.Y,steepcoord.X,steepcoord.Y
ASIA-TEMPERATE,Tibet,Mount Everest,8849,8568,6468,27.9880555555556,86.925,87.0628709434479,27.6482815645358,87.2255070997307,27.8285039979063
ASIA-TROPICAL,Jammu-Kashmir,K2,8611,5663,4317,35.8811111111111,76.5133333333333,76.4192903078021,35.6646352098212,76.4578348272416,35.8246346771803
ASIA-TROPICAL,Nepal,Kangchenjunga,8586,8208,6513,27.7013888888889,88.1404152777778,87.2583740085933,28.4780181328061,87.2583740085933,28.4780181328061
ASIA-TROPICAL,Nepal,Dhaulagiri,8167,7485,6788,28.6966666666667,83.49,82.6469220126576,29.4333968679301,82.6469220126576,29.4333968679301
ASIA-TROPICAL,Nepal,Manaslu,8163,7861,7157,28.55,84.5597222222222,83.7176466884973,29.2865804345779,83.7176466884973,29.2865804345779
ASIA-TROPICAL,Jammu-Kashmir,Nanga Parbat,8125,7153,7063,35.2391666666667,74.59,73.7060683595752,35.9548044773647,73.7060683595752,35.9548044773647
ASIA-TROPICAL,Nepal,Annapurna,8091,6749,5709,28.5961111111111,83.8238888888889,84.0321146979089,28.3493069273783,83.7335662309483,28.5953142334032
ASIA-TEMPERATE,Tibet,Shishapangma,8027,7415,4457,28.3522222222222,85.7797222222222,84.9523927956322,29.0778276063379,84.9523927956322,29.0778276063379
ASIA-TROPICAL,Jammu-Kashmir,Disteghil Sar,7885,6076,5226,36.3258333333333,75.1880555555556,74.3318258532283,37.0103223323109,74.9770148102292,36.3035236825467
ASIA-TROPICAL,Uttaranchal,Nanda Devi,7816,7087,5222,30.3738888888889,79.9708333333333,80.1721618519006,30.1045128671849,79.7387170182304,30.2262423154008
ASIA-TROPICAL,Jammu-Kashmir,Batura Sar,7795,6322,5549,36.51,74.5225,74.4050557693432,36.2548648366272,74.644437900623,36.3539908300096
ASIA-TROPICAL,Jammu-Kashmir,Rakaposhi,7788,6580,6346,36.1425,74.4891666666667,74.5485780680809,35.8776586095541,73.6357863196997,36.8254141287141
ASIA-TEMPERATE,Tibet,Namcha Barwa,7782,7180,6032,29.6305555555556,95.0552777777778,94.2481012086315,30.3283818872195,95.1546016958335,29.5639846342125
ASIA-TROPICAL,Uttaranchal,Kamet,7756,6738,4286,30.92,79.5933333333333,79.4884200810828,30.6601394928488,79.5404790556079,30.86311963139
ASIA-TROPICAL,Pakistan,Tirich Mir,7708,6257,5484,36.2458333333333,71.8438888888889,70.9992097066608,36.9208634098109,71.9465833179285,36.2073532777903
ASIA-TEMPERATE,Xinjiang,Kongur Tagh,7649,6075,5301,38.5938888888889,75.3133333333333,75.4733550864121,38.8315522190244,74.4956647476924,39.2274292233709
ASIA-TROPICAL,Bhutan,Gangkhar Puensum,7570,5776,3074,28.0469444444444,90.455,90.2321632508264,27.9187633760027,89.6751311031917,28.7333550401972
ASIA-TEMPERATE,Sichuan,Mount Gongga,7556,5927,4985,29.5958333333333,101.879166666667,101.114646837558,30.2582832328401,101.114646837558,30.2582832328401
ASIA-TEMPERATE,Tadzhikistan,Ismoil Somoni Peak,7495,5529,4397,38.9427777777778,72.0152777777778,71.7765991968318,39.0717512491256,71.9325640249565,39.1012397226074
ASIA-TROPICAL,Pakistan,Noshaq,7492,6001,4770,36.4330555555556,71.8283333333333,71.0092765599054,37.0851669380713,71.7468621981245,36.2228268827957
ASIA-TEMPERATE,Kirgizistan,Pik Pobeda,7439,6069,3851,42.035,80.1284722222222,79.9976532759873,41.7839615209918,79.2546539543852,42.6765213287358
ASIA-TEMPERATE,Tibet,Gyala Peri,7294,6561,5888,29.8141666666667,94.9683333333333,94.2115621726559,30.4667064462125,94.2115621726559,30.4667064462125
ASIA-TEMPERATE,Kirgizistan,Khan Tengri,7010,5089,3717,42.2108333333333,80.1741666666667,79.338026757709,42.8233533847206,80.1938624548151,42.2659731498981
ASIA-TEMPERATE,Tibet,Muztag,6973,2036,1434,36.4166666666667,87.3833333333333,86.6932021911635,36.9692936637533,86.6932021911635,36.9692936637533
SOUTHERN AMERICA,Mendoza,Aconcagua,6961,6256,3704,-32.6530555555556,-70.0116666666667,-70.3367768323136,-32.699841873549,-69.9901763839886,-32.7047675738935
SOUTHERN AMERICA,Atacama,Ojos del Salado,6893,2691,1951,-27.1095833333333,-68.5423611111111,-68.6110536243656,-27.2161041908127,-69.2399626536977,-26.4811022049418
ASIA-TEMPERATE,Afghanistan,Kuh-e Bandaka,6812,5087,4462,36.1791666666667,70.9833333333333,70.2401919654155,36.773049294246,70.8905489655783,36.1962988324736
SOUTHERN AMERICA,Catamarca,Monte Pissis,6793,2689,2155,-27.7555555555556,-68.7983333333333,-68.715244284855,-27.7041388230401,-68.7380322314554,-27.7492707781854
SOUTHERN AMERICA,Peru,Nevado Huascarán,6768,6202,4440,-9.12111111111111,-77.6047222222222,-78.2290766917619,-8.49893217669797,-77.6956464671789,-9.10297177408865
ASIA-TEMPERATE,Xinjiang,Chakragil,6760,5249,4421,38.8658333333333,75.1083333333333,74.3846260081764,39.426001303008,75.1854040493446,38.9080101686465
SOUTHERN AMERICA,La Rioja,Cerro Bonete,6760,3705,1908,-28.0183333333333,-68.7558333333333,-68.6690550626777,-28.1353872267559,-69.4456693106783,-27.4004920999772
SOUTHERN AMERICA,Antofagasta,Cerro Llullaillaco,6752,3434,2403,-24.7197222222222,-68.5366666666667,-69.2070221812425,-24.1034594415728,-68.5703139790755,-24.6962912338117
SOUTHERN AMERICA,Atacama,Tres Cruces,6748,2924,2083,-27.0977777777778,-68.7788888888889,-68.8882992009868,-27.046789910513,-68.8152238814032,-27.044571370484
SOUTHERN AMERICA,San Juan,Cerro Mercedario,6720,5740,4013,-31.9788888888889,-70.1127777777778,-70.8257029132922,-31.3665536343463,-70.8257029132922,-31.3665536343463
SOUTHERN AMERICA,Peru,Nevado Huascarán - Pico Norte,6664,6160,4424,-9.10222222222222,-77.6202777777778,-78.235174320639,-8.49099992263988,-78.235174320639,-8.49099992263988
SOUTHERN AMERICA,Catamarca,Cerro Cazadero,6663,2733,2224,-27.1944444444444,-68.5608333333333,-68.6239796303933,-27.2260619173855,-69.2359802640844,-26.5859327316866
ASIA-TEMPERATE,Xinjiang,Xuelian Feng,6627,4604,4059,42.2616666666667,80.89,80.094805773958,42.8440414419022,80.7960453912617,42.2390766244579
ASIA-TROPICAL,Pakistan,Buni Zom,6542,5004,4647,36.1541666666667,72.3275,71.6145991301167,36.7248947290015,71.6145991301167,36.7248947290015
SOUTHERN AMERICA,Bolivia,Nevado Sajama,6542,2634,2232,-18.1077777777778,-68.8830555555555,-68.8029595485931,-18.1576790589122,-68.914002352655,-18.1305884528829
SOUTHERN AMERICA,Atacama,El Muerto,6502,2515,2409,-27.0572222222222,-68.4844444444444,-69.1427309509294,-26.4635860637485,-69.1427309509294,-26.4635860637485
SOUTHERN AMERICA,Catamarca,Cerro del Nacimiento,6465,2719,2238,-27.2805555555556,-68.5125,-68.4269087867835,-27.2694743281555,-69.168366694407,-26.6903703464508
SOUTHERN AMERICA,Catamarca,Volcán Antofalla,6440,3118,1388,-25.5627777777778,-67.8811111111111,-68.5251126503788,-24.9748305016856,-68.5251126503788,-24.9748305016856
SOUTHERN AMERICA,Bolivia,Nevado de Illimani,6438,5433,4659,-16.6480555555556,-67.7808333333333,-68.3883420200211,-16.0598486970992,-67.7363415183618,-16.7090904561659
SOUTHERN AMERICA,Bolivia,Nevado Ancohuma,6427,5735,3941,-15.8541666666667,-68.5408333333333,-68.3485862105659,-15.7243563348798,-69.1449802925622,-15.2672289659627
SOUTHERN AMERICA,Peru,Nevado Coropuna,6405,5741,2529,-15.5461111111111,-72.6605555555556,-73.2621660815763,-14.9620707811879,-72.5856375846754,-15.5887086403847
SOUTHERN AMERICA,Peru,Nevado Huandoy,6395,6194,4435,-9.02861111111111,-77.6652777777778,-78.2556672054967,-8.44057664625365,-77.69497977072,-9.10785814401887
ASIA-TEMPERATE,Qinghai,Amnye Maqen,6282,2605,2114,34.7383333333333,99.5036111111111,99.029717776597,35.1255148250654,99.029717776597,35.1255148250654
SOUTHERN AMERICA,Ecuador,Chimborazo,6263,6229,2892,-1.46916666666667,-78.8175,-79.3859738230673,-0.897314085367657,-79.3859738230673,-0.897314085367657
NORTHERN AMERICA,Alaska,Denali,6191,6021,5263,63.0691111111111,-151.006530555556,-152.262637091085,63.6240448515247,-152.262637091085,63.6240448515247
SOUTHERN AMERICA,Antofagasta,Aucanquilcha,6176,2487,1907,-21.2208333333333,-68.4686111111111,-69.0694771244799,-20.6540471841348,-68.428780414478,-21.2241252537742
SOUTHERN AMERICA,Bolivia,Nevado de Chiaraco,6104,5344,3127,-15.9605555555556,-68.4130555555556,-68.2582638940893,-15.7925496698694,-68.5873009657377,-15.8399788457218
SOUTHERN AMERICA,Bolivia,Huayna Potosí,6088,5333,3556,-16.2622222222222,-68.1538888888889,-68.7283330222629,-15.7041065672597,-68.0681093069826,-16.1386291524301
NORTHERN AMERICA,Yukon,Mount Logan,5959,5559,4287,60.5671611111111,-140.404138888889,-141.515977315844,61.1014054816471,-140.367114069001,60.4956705646551
SOUTHERN AMERICA,Ecuador,Volcán Cotopaxi,5897,3241,2469,-0.680555555555555,-78.4380555555556,-78.4841861542368,-0.552903719427354,-78.4752035749378,-0.690819990058124
AFRICA,Tanzania,Mount Kilimanjaro,5895,5196,4478,-3.06666666666667,37.3591666666667,36.8257283145828,-2.52912941916133,37.3360002183225,-3.15325724521511
ASIA-TEMPERATE,Qinghai,Altun Shan,5830,3949,2395,39.2508333333333,93.6963888888889,93.7080607787913,39.4265190842463,93.1017376985257,39.7087332997294
ASIA-TEMPERATE,Qinghai,Kangze'gyai,5808,1703,1374,38.5002777777778,97.7247222222222,97.173656017271,38.9288201139947,97.7243208722223,38.5224837461585
SOUTHERN AMERICA,Ecuador,Volcán Cayambe,5790,5087,3003,0.0252777777777778,-77.9888888888889,-77.7851055175968,0.130953036843371,-77.9333280857592,0.0111243852089334
SOUTHERN AMERICA,Colombia,Pico Cristóbal Colón,5700,5700,4554,10.8383333333333,-73.6866666666667,-74.2200964390634,11.364697983855,-74.2200964390634,11.364697983855
ASIA-TEMPERATE,Kabardino-Balkariya,Mount Elbrus,5642,5077,3636,43.35254,42.437875,41.7306493639856,43.8624637942384,42.3625905665823,43.3380687891703
NORTHERN AMERICA,Puebla,Pico de Orizaba,5636,5104,3755,19.03025,-97.2699,-97.8106940338644,19.5420863022393,-97.2200872278859,18.9963204320234
ASIA-TEMPERATE,Iran,Mount Damavand,5610,5409,4553,35.9552777777778,52.1091666666667,52.2052546754312,36.1705876321088,52.1939369042205,35.9813388317476
ASIA-TEMPERATE,Yunnan,Jade Dragon Snow Mountain,5596,4298,3870,27.0983333333333,100.175,100.29055970386,26.9491488365654,100.159612289498,27.1703054006332
SOUTHERN AMERICA,Tucumán,Cerro del Bolsón,5552,5184,4176,-27.2141666666667,-66.0941666666667,-66.645366145351,-26.7175694296705,-65.9815461920081,-27.2330283823831
NORTHERN AMERICA,Alaska,Mount Saint Elias,5489,5489,5212,60.2930166666667,-140.930072222222,-141.944638909079,60.7849380739248,-141.944638909079,60.7849380739248
ASIA-TEMPERATE,Xinjiang,Bogda Peak,5445,4865,2403,43.8016666666667,88.335,88.2849572824721,43.9815227526052,88.3037625301905,43.7722766134459
SOUTHERN AMERICA,Colombia,Ritacuba Blanco,5410,4952,2498,6.49416666666667,-72.2975,-72.1074619799202,6.37454362668767,-72.2498004688334,6.59385818536789
NORTHERN AMERICA,Puebla,Popocatepetl,5410,4162,3212,19.0223597222222,-98.6277902777778,-99.1469604088021,19.514023199691,-98.594506409933,18.977231556511
SOUTHERN AMERICA,Colombia,Nevado del Huila,5390,4386,3351,2.92361111111111,-76.0283333333333,-76.1793238781234,3.02050148475315,-76.0421396627454,2.86903372584655
SOUTHERN AMERICA,Colombia,Nevado del Ruiz,5311,5063,2362,4.89166666666667,-75.3186111111111,-75.801179554609,5.3754260880327,-75.2801606313962,4.86015057835503
NORTHERN AMERICA,Alaska,Mount Foraker,5304,5105,4193,62.9604,-151.3998,-152.469900984661,63.4349103631522,-152.469900984661,63.4349103631522
NORTHERN AMERICA,Yukon,Mount Lucania,5226,4157,3399,61.0233333333333,-140.465555555556,-141.453683868907,61.4919402765165,-141.453683868907,61.4919402765165
NORTHERN AMERICA,México State,Volcán Iztaccíhuatl,5213,3207,2436,19.1802777777778,-98.6416666666667,-99.1424053630686,19.6537310652824,-98.6798363485706,19.164328983167
AFRICA,Kenya,Mount Kenya,5199,2466,1373,-0.1,37.2,37.2242096246303,-0.0869318526514246,36.7391126607241,0.362992646463385
ASIA-TEMPERATE,Kabardino-Balkariya,Shkhara,5193,4534,3699,43,43.1097222222222,42.4625814505613,43.4697141433118,42.4625814505613,43.4697141433118
ASIA-TEMPERATE,Turkey,Mount Ararat,5137,4341,4077,39.7,44.3,43.6925866014307,40.1645490916864,44.3263197191359,39.7720949926335
AFRICA,Zaïre,Mount Stanley,5109,4414,4235,0.385833333333333,29.8716666666667,29.4550340030072,0.805222191482094,29.8256266301843,0.445747652755033
NORTHERN AMERICA,Alaska,Mount Bona,5044,4625,3556,61.3856,-141.7495,-142.71423002486,61.8392995531225,-141.816100759706,61.3401312645573
NORTHERN AMERICA,Alaska,Mount Blackburn,4996,4690,4162,61.7316666666667,-143.433055555556,-144.399430986715,62.180692409395,-143.557449463935,61.6859806778049
SOUTHERN AMERICA,Venezuela,Pico Bolívar,4981,4753,3749,8.54086111111111,-71.0465,-71.5051661184355,8.99551733213382,-71.5051661184355,8.99551733213382
ASIA-TEMPERATE,Kazakhstan,Pik Talgar,4979,4377,3378,43.1178388888889,77.3413333333333,77.2896362131834,43.2983459280674,77.3235618014537,43.1745904731108
ASIA-TEMPERATE,Sichuan,Jiuding Shan,4969,4400,3534,31.5433333333333,103.853333333333,103.341409463508,31.9784999228423,103.341409463508,31.9784999228423
NORTHERN AMERICA,Alaska,Mount Sanford,4949,4355,3746,62.2132,-144.1292,-145.101902790002,62.65743351006,-143.992107493514,62.2053709406258
ASIA-TEMPERATE,Xinjiang,Tomort,4886,3883,1761,43.0733333333333,94.3466666666667,93.7432423790358,43.5101542438023,94.2508627438029,43.1336473220825
ASIA-TROPICAL,Irian Jaya,Puncak Jaya,4884,4750,3622,-4.08333333333333,137.183333333333,136.740252602861,-3.63760629350493,137.199319854476,-4.13962727043467
ASIA-TEMPERATE,Iran,Sabalan,4811,4039,2585,38.2669444444444,47.8369444444444,47.6726199576544,38.3965116208783,47.7671757862919,38.2749867295761
EUROPE,Italy,Mont Blanc,4808,4471,4242,45.8327777777778,6.865,6.23515348215694,46.2669042623832,6.23515348215694,46.2669042623832
ASIA-TEMPERATE,Kamchatka,Klyuchevskaya Sopka,4750,4720,4176,56.0666666666667,160.633333333333,159.855741059854,56.4940324795982,160.771386833745,56.0383434844785
NORTHERN AMERICA,México State,Nevado de Toluca,4690,3037,1438,19.1019722222222,-99.7677388888889,-100.218259324264,19.527954075741,-99.7728225410829,19.0835879908226
NORTHERN AMERICA,Alaska,Mount Fairweather,4671,4578,4327,58.9063962962963,-137.526555555556,-138.353821870743,59.3270922397382,-138.353821870743,59.3270922397382
EUROPE,Italy,Monte Rosa,4633,4427,3734,45.9369444444444,7.86666666666667,7.2593146860003,46.3559797413239,7.94412127690144,45.9527077253027
AFRICA,Tanzania,Mount Meru,4565,3507,3045,-3.24678055555556,36.76025,36.3463000299951,-2.83092583104248,36.7600250499245,-3.30352788241432
NORTHERN AMERICA,Alaska,Mount Hubbard,4557,4557,3360,60.3194,-139.0726,-139.914563726981,60.727869545587,-139.157485650305,60.2906969947952
AFRICA,Ethiopia,Ras Dashen,4550,3397,2475,13.2366666666667,38.3725,38.4936544758142,13.1587675035891,38.3506704767765,13.3305347590445
NORTHERN AMERICA,Alaska,Mount Bear,4520,3490,2626,61.2834,-141.1433,-141.191116716975,61.1503517454498,-141.219267691601,61.2737317825718
ASIA-TROPICAL,Papua New Guinea,Mount Wilhelm,4509,4351,3083,-5.8,145.033333333333,144.623024591347,-5.38817933858772,144.963602725756,-5.64378152201854
AFRICA,Zaïre,Mount Karisimbi,4507,3325,2597,-1.5,29.45,29.420481986483,-1.36918356317761,29.3980162755325,-1.43474955859518
ASIA-TEMPERATE,Altay,Belukha Mountain,4506,3426,2775,49.8069444444444,86.5897222222222,85.9737932473915,50.2011301736976,86.6074210408561,49.7689570330451
EUROPE,Switzerland,Matterhorn,4478,4136,3006,45.9763888888889,7.65861111111111,7.07152521795873,46.3805022378194,7.07152521795873,46.3805022378194
ASIA-TEMPERATE,Dagestan,Bazar Dyuzi,4466,4125,3075,41.2205555555556,47.8580555555556,47.7285460380011,41.0684436153711,47.3134290468078,41.6277455566218
NORTHERN AMERICA,Alaska,Mount Hunter,4442,4224,3464,62.9504,-151.0915,-151.9862,63.34868,-151.9862,63.34868
NORTHERN AMERICA,Tlaxcala,Volcán La Malinche,4438,2211,1331,19.2308333333333,-98.0319444444444,-98.1225166203475,19.2012251766612,-98.046446884851,19.2170561264126
NORTHERN AMERICA,California,Mount Whitney,4421,3345,2846,36.5786027777778,-118.292086111111,-118.803112038491,36.9875703372333,-118.252869620167,36.6867781163147
NORTHERN AMERICA,Colorado,Mount Elbert,4401,1596,1323,39.1178,-106.445366666667,-106.806234969447,39.3979602795775,-106.806234969447,39.3979602795775
NORTHERN AMERICA,Washington,Mount Rainier,4394,4314,3659,46.8529388888889,-121.760438888889,-121.982110295975,46.9505494359349,-122.346635768451,47.2506104926758
NORTHERN AMERICA,Colorado,Blanca Peak,4374,2087,1852,37.5775,-105.485585185185,-105.863228794897,37.8766992972128,-105.502275698723,37.5439366945922
NORTHERN AMERICA,Colorado,Uncompahgre Peak,4365,2088,1329,38.0717,-107.4621,-107.55635182031,38.1188252887862,-107.556288304919,38.0692749746667
NORTHERN AMERICA,Colorado,Crestone Peak,4359,2055,1850,37.9669,-105.5855,-105.696944602207,37.9506756226122,-105.628690251361,37.9709913482264
NORTHERN AMERICA,Colorado,Longs Peak,4346,2392,1691,40.255,-105.615,-105.499422141723,40.2399478199076,-105.581683948383,40.2400005393204
NORTHERN AMERICA,California,White Mountain Peak,4344,3107,2924,37.6341,-118.2557,-118.765156661484,38.0364130575696,-118.312041129987,37.6050297437112
NORTHERN AMERICA,California,North Palisade,4341,3176,2538,37.0941666666667,-118.514444444444,-118.373357880807,37.0202401024729,-118.373295419206,37.0540303952392
NORTHERN AMERICA,California,Mount Shasta,4322,3707,3116,41.4091990740741,-122.194896296296,-122.720645859392,41.8001651871541,-122.720645859392,41.8001651871541
NORTHERN AMERICA,Alaska,Mount Wrangell,4317,3678,2892,62.0059,-144.0187,-144.860626912956,62.3932785221557,-144.167294501351,61.9650377252708
NORTHERN AMERICA,Colorado,Pikes Peak,4302,2504,1575,38.8405,-105.0442,-105.416884207895,39.1306364517539,-105.026631661732,38.8542358619304
NORTHERN AMERICA,Yukon,Mount Augusta,4289,4014,3276,60.3074,-140.4584,-140.296666798592,60.1456103606017,-141.250393869869,60.6931058621916
NORTHERN AMERICA,Colorado,Culebra Peak,4283,2016,1314,37.1224,-105.1858,-105.076459371775,37.137803017863,-105.55616196191,37.4188546216603
NORTHERN AMERICA,Jalisco,Nevado de Colima,4270,3762,2721,19.5633166666667,-103.608655555556,-104.020241121638,19.9505157065018,-103.56896581528,19.5535109474941
SOUTHERN AMERICA,Guatemala,Volcán Tajumulco,4220,4145,3558,15.0381666666667,-91.90185,-92.2986809899592,15.4210543786819,-91.9468998113835,15.0056720690063
NORTHERN AMERICA,Alaska,Regal Mountain,4220,3689,3004,61.7438,-142.8675,-143.683307087618,62.1220904499881,-142.802774407766,61.6982449631703
NORTHERN AMERICA,Alaska,Mount Hayes,4216,3591,3121,63.6204777777778,-146.716866666667,-147.586120953182,63.9988273157203,-146.646895856266,63.662758513322
NORTHERN AMERICA,Wyoming,Gannett Peak,4209,1792,1571,43.1842666666667,-109.654233333333,-109.701471301283,43.1091414959136,-109.704610956187,43.1924016895912
PACIFIC,Hawaiian Is.,Mauna Kea,4207,4207,2111,19.8206518518518,-155.468051851852,-155.874559235196,20.2042330297154,-155.506100096024,19.8659494832281
NORTHERN AMERICA,Wyoming,Grand Teton,4199,2297,2186,43.7412,-110.8024,-111.214159191364,44.0374225350849,-111.214159191364,44.0374225350849
NORTHERN AMERICA,Alaska,Mount Cook,4194,4194,3387,60.1816,-139.9811,-140.752469850943,60.5580027872629,-140.00925665045,60.1294047418048
PACIFIC,Hawaiian Is.,Mauna Loa,4169,4169,1693,19.4756,-155.6054,-156.008146717313,19.8551460673475,-155.626199668471,19.3813327178044
AFRICA,Morocco,Toubkal,4167,3459,2456,31.0619444444444,-7.91611111111111,-8.35839184893346,31.4395960572932,-8.35839184893346,31.4395960572932
ASIA-TROPICAL,Papua New Guinea,Mount Boising,4150,3875,3223,-5.8,146.1,145.722062132914,-5.42129829396134,146.11909463057,-5.74470310228497
SOUTHERN AMERICA,La Rioja,El Melao,4150,3189,2707,-28.8675,-67.1275,-67.5428599295399,-28.5006739764254,-67.2624753834246,-28.8959890466285
NORTHERN AMERICA,Utah,Kings Peak,4125,1150,871,40.7763,-110.3729,-110.406459481524,40.7305046120774,-110.724763189684,41.0428947219591
ASIA-TROPICAL,Sabah,Mount Kinabalu,4095,4047,3879,6.075,116.558611111111,116.184766253728,6.44692908362173,116.514748371302,6.13508675892788
NORTHERN AMERICA,Alaska,Mount Natazhat,4095,3242,2616,61.5217,-141.103,-141.888824352367,61.8889467196164,-141.118520998152,61.5591638912638
NORTHERN AMERICA,Alaska,Mount Jarvis,4091,3271,2576,62.0234,-143.6198,-144.41796657367,62.3909350358335,-144.41796657367,62.3909350358335
ASIA-TEMPERATE,Armenia,Aragats Lerr,4090,3134,1421,40.5230555555556,44.1952777777778,43.7053721939313,40.8931717325294,44.2125626651264,40.509230984192
SOUTHERN AMERICA,Guatemala,Volcán Tacaná,4067,4055,3544,15.1325,-92.1083333333333,-92.4910592185369,15.5021220727125,-92.1554495376065,15.1002763541448
SOUTHERN AMERICA,Aisén,Cerro San Valentín,4058,4086,3949,-46.595,-73.3456944444444,-73.9339500744685,-46.1856449784975,-73.2728838415034,-46.5402371789173
AFRICA,Cameroon,Mount Cameroon,4040,4040,3488,4.21666666666667,9.1725,8.80504557107324,4.58486192672605,9.11822965710182,4.23000349944701
NORTHERN AMERICA,British Columbia,Mount Waddington,4019,4019,3022,51.3736555555556,-125.263466666667,-125.851846846339,51.7371535800218,-125.851846846339,51.7371535800218
NORTHERN AMERICA,Alaska,Mount Marcus Baker,4016,4016,3756,61.4375259259259,-147.752037037037,-148.520946229937,61.7983172207051,-147.720327782666,61.3831860914895
NORTHERN AMERICA,Wyoming,Cloud Peak,4014,2037,1134,44.3821407407407,-107.173896296296,-107.60082267963,44.6864632019513,-107.128066564584,44.3362799489859
NORTHERN AMERICA,New Mexico,Wheeler Peak,4013,1824,1148,36.5568,-105.4169,-105.501125844519,36.5090543150854,-105.750871467983,36.8262693909555
NORTHERN AMERICA,Wyoming,Francs Peak,4012,1888,1357,43.9613,-109.3392,-109.242619077018,44.0107139895239,-109.242735555522,43.9387144442252
NORTHERN AMERICA,California,Boundary Peak,4007,2740,2563,37.8461,-118.3514,-118.823624154875,38.2158473773134,-118.372449324877,37.7528037529025
NORTHERN AMERICA,California,Mount Ritter,4006,2736,1662,37.6891666666667,-119.199444444444,-119.670545072622,38.0590198004783,-119.211855628797,37.6680380595987
NORTHERN AMERICA,Nevada,Wheeler Peak,3982,2412,2132,38.9858,-114.3139,-114.738463938207,39.3150249480001,-114.361386642239,38.9757466921431
SOUTHERN AMERICA,Guatemala,Volcán Acatenango,3975,3871,3181,14.5016,-90.8755,-91.2485290769702,14.8637689212094,-91.2485290769702,14.8637689212094
NORTHERN AMERICA,British Columbia,Mount Robson,3959,3237,3156,53.1105277777778,-119.156633333333,-119.714890941512,53.4430853516393,-119.206533963036,53.0669816359786
ASIA-TEMPERATE,Taiwan,Yushan,3952,3575,3033,23.47,120.957266666667,120.564618993134,23.8306278101674,120.564618993134,23.8306278101674
ASIA-TEMPERATE,Iran,Taftan,3941,2429,1615,28.6,61.1333333333333,61.2284371954316,28.5688828815658,61.1543440910534,28.6050060726516
NORTHERN AMERICA,México Distrito Federal,Cerro Ajusco,3937,1653,1228,19.2075,-99.2583333333333,-99.2179605420155,19.2322935026397,-99.637199512627,19.5661553065194
NORTHERN AMERICA,Montana,Granite Peak,3904,2169,1489,45.1634333333333,-109.807533333333,-110.221546861506,45.4539044781135,-110.221546861506,45.4539044781135
NORTHERN AMERICA,Alaska,Mount Crillon,3879,3823,3389,58.6625,-137.1712,-137.853030112785,59.0115031439964,-137.264593120496,58.63171806706
NORTHERN AMERICA,Utah,Mount Peale,3879,2394,1647,38.4385,-109.2292,-109.572429692891,38.7073079541577,-109.287674763913,38.4420438669967
NORTHERN AMERICA,Idaho,Borah Peak,3861,2015,1914,44.1374,-113.7811,-114.229483994627,44.4588429373821,-113.820887420378,44.1154788034731
NORTHERN AMERICA,Montana,Mount Wood,3859,2419,1965,45.275,-109.807777777778,-110.216826316721,45.5627839530317,-109.854789734426,45.336310697945
NORTHERN AMERICA,Arizona,Humphreys Peak,3852,1915,1404,35.3464,-111.678,-111.630172796992,35.3945665904404,-111.693449552596,35.3112019081836
ASIA-TEMPERATE,Xinjiang,Sauyr Zhotasy,3840,2309,1505,47.0491666666667,85.5666666666667,85.0802195509523,47.378838134411,85.0802195509523,47.378838134411
NORTHERN AMERICA,Michoacán,Volcán Tancítaro,3840,3452,1532,19.4166333333333,-102.319761111111,-102.689841521332,19.7659904873476,-102.353412972207,19.3869546028251
NORTHERN AMERICA,California,Mount Conness,3839,2293,1326,37.9669444444444,-119.321388888889,-119.775093258394,38.3226115029086,-119.775093258394,38.3226115029086
ASIA-TROPICAL,Myanmar,Saramati,3826,3617,3149,25.7333333333333,95.0333333333333,94.6483770441384,26.0802085143432,95.0207312941556,25.688064350098
SOUTHERN AMERICA,Costa Rica,Chirripó Grande,3820,3453,2408,9.48423333333333,-83.4887555555556,-83.8405915189406,9.83128219052228,-83.4850663361005,9.57378648486947
NORTHERN AMERICA,Jalisco,Volcán de Colima,3820,3769,2709,19.5130555555556,-103.6175,-103.985887790017,19.8597008723583,-103.570662795068,19.5551910053467
ASIA-TROPICAL,Sumatera,Mount Kerinci,3805,3567,3147,-1.69694388888889,101.264443888889,100.918722569119,-1.35076917646823,100.918722569119,-1.35076917646823
EUROPE,Austria,Großglockner,3797,3085,2555,47.0744444444444,12.6938888888889,12.7638310603087,46.9446682176992,12.7806201940341,47.1740311362611
ASIA-TEMPERATE,Honshu,Mount Fuji,3776,3776,3320,35.3605555555556,138.7275,138.303347807425,35.7056030456733,138.303347807425,35.7056030456733
NORTHERN AMERICA,Alaska,Mount Deborah,3761,3107,2520,63.6377,-147.2384,-148.013989130843,63.9744136492934,-147.187605547095,63.6669809392957
NORTHERN AMERICA,Washington,Mount Adams,3743,3356,2636,46.2024,-121.4909,-121.981274889477,46.539928656839,-121.981274889477,46.539928656839
NORTHERN AMERICA,Alberta,Mount Columbia,3741,2844,2475,52.1472611111111,-117.441633333333,-117.943598372687,52.4528812421183,-117.943598372687,52.4528812421183
ASIA-TROPICAL,Lesser Sunda Is.,Mount Rinjani,3726,3646,3181,-8.41666666666667,116.466666666667,116.127217499641,-8.0766851852534,116.127217499641,-8.0766851852534
AUSTRALASIA,New Zealand South,Aoraki/Mount Cook,3724,3208,2479,-43.595,170.141944444444,169.68092783664,-43.2559549415587,169.68092783664,-43.2559549415587
NORTHERN AMERICA,Oaxaca,Cerro Nube Flane,3721,3442,2340,16.2144444444444,-96.1822222222222,-96.5320102270307,16.5522578201028,-96.2811845036382,16.1391011053351
NORTHERN AMERICA,Nuevo León,Cerro El Potosí,3720,2942,1717,24.8717833333333,-100.232738888889,-100.1471420323,24.9430318013997,-100.211514824727,24.8595493651057
NORTHERN AMERICA,Idaho,Diamond Peak,3719,2100,1534,44.1414,-113.0827,-113.493978581465,44.4354432035799,-113.05764422579,44.1369424113009
AFRICA,Canary Is.,Teide,3715,3715,3435,28.2726388888889,-16.6436111111111,-17.0248369689944,28.6101620444372,-16.6618131388423,28.3242058157638
NORTHERN AMERICA,Coahuila,Cerro San Rafael,3715,2913,1437,25.3636111111111,-100.556944444444,-100.47733825454,25.4764720267201,-100.928014915331,25.6994417297646
NORTHERN AMERICA,Utah,Delano Peak,3711,1932,1515,38.3692,-112.3714,-112.7761329341,38.6863718113306,-112.285147884165,38.3942576611421
NORTHERN AMERICA,Oaxaca,Cerro el Nacimiento,3710,3437,2400,16.2115,-96.1967,-96.5454498734091,16.5480501259567,-96.5454498734091,16.5480501259567
SOUTHERN AMERICA,Santa Cruz,Monte San Lorenzo,3706,3405,3257,-47.5916666666667,-72.3066666666667,-72.8419010243396,-47.2264524124279,-72.8419010243396,-47.2264524124279
NORTHERN AMERICA,Greenland,Gunnbjørn Fjeld,3694,0,0,68.91895,-29.8988166666667,-30.8358753209209,69.2497642375593,-30.8358753209209,69.2497642375593
NORTHERN AMERICA,Utah,Ibapah Peak,3686,2368,1859,39.8282,-113.92,-113.824552305974,39.8791823422102,-114.234570771916,40.0701809203261
NORTHERN AMERICA,Nevada,Mount Moriah,3680,2202,1309,39.2732,-114.1988,-114.575076253787,39.5645624784551,-114.162105131692,39.3062060151435
ASIA-TROPICAL,Jawa,Semeru,3676,3642,3060,-8.1,112.916666666667,112.582005868002,-7.76454349617745,112.582005868002,-7.76454349617745
ASIA-TROPICAL,Papua New Guinea,Mount Suckling,3676,3665,3024,-9.66916666666667,149.010833333333,148.675074067351,-9.33344000535844,148.675074067351,-9.33344000535844
ASIA-TEMPERATE,North Yemen,Jabal An-Nabi Shu'ayb,3666,2487,1992,15.2791666666667,43.9758333333333,43.6320684052764,15.6122436567971,43.9258894360459,15.257787677947
NORTHERN AMERICA,Alaska,Mount Drum,3661,3167,2616,62.1159,-144.6394,-145.35085603907,62.4439722913245,-144.567240037361,62.1294750600876
NORTHERN AMERICA,Idaho,Hyndman Peak,3660,1791,1342,43.7495,-114.1311,-114.550692477577,44.0513638083466,-114.145063797137,43.732623551455
NORTHERN AMERICA,New Mexico,Sierra Blanca Peak,3652,2168,1622,33.3743,-105.8087,-105.90779770702,33.3429291542818,-106.121005120425,33.6356007900446
NORTHERN AMERICA,Nevada,Mount Jefferson,3641,1676,1127,38.7519,-116.9267,-117.359501239777,39.0893966909232,-116.946195335188,38.7388816031302
NORTHERN AMERICA,Utah,Mount Nebo,3637,2262,2136,39.8219,-111.7603,-112.060257809499,40.0525718452375,-112.060257809499,40.0525718452375
NORTHERN AMERICA,Nevada,Charleston Peak,3632,2734,1598,36.2716,-115.6956,-115.791305437837,36.2210498030539,-115.713459118561,36.2571345030683
NORTHERN AMERICA,Nevada,North Schell Peak,3626,1928,1330,39.4132,-114.5997,-114.958350887575,39.6894787454258,-114.958350887575,39.6894787454258
SOUTHERN AMERICA,Aisén,Lautaro,3623,3481,3481,-49.019,-73.504,-74.0627999555499,-48.6482856156959,-74.0627999555499,-48.6482856156959
NORTHERN AMERICA,British Columbia,Mount Assiniboine,3616,2446,2271,50.8696,-115.6509,-115.696488455757,50.7845086626337,-116.114988513147,51.1611390302141
ASIA-TEMPERATE,Kamchatka,Ichinsky,3607,3207,2600,55.6777777777778,157.721666666667,157.495439084967,55.725038799127,157.141194304687,56.0023167995506
NORTHERN AMERICA,Nevada,Arc Dome,3590,1557,1135,38.8327,-117.3531,-117.262286028705,38.8361329227845,-117.779648276157,39.1641792279707
NORTHERN AMERICA,Utah,Mount Timpanogos,3582,2214,2173,40.3908,-111.6459,-111.937835801028,40.6137236068991,-111.937835801028,40.6137236068991
NORTHERN AMERICA,California,Mount Patterson,3560,1929,1203,38.4366,-119.3052,-119.395574215876,38.4871485269634,-119.252357510136,38.4151025233473
NORTHERN AMERICA,Alaska,Mount Russell,3557,3388,2387,62.7984,-151.8845,-152.591783165849,63.1178778498132,-151.902999250749,62.7630043464745
NORTHERN AMERICA,British Columbia,Monarch Mountain,3555,3441,2936,51.8994444444444,-125.875833333333,-126.419383798349,52.2340109364001,-125.81969186834,51.8914771271559
NORTHERN AMERICA,Guerrero,Cerro Tiotepec,3550,3323,2571,17.4682666666667,-100.136394444444,-100.472481613359,17.7920380458876,-100.182377174861,17.4376761166713
NORTHERN AMERICA,Nuevo León,Picacho San Onofre,3550,2185,1900,23.8007,-99.8464,-100.19714610274,24.1239389383864,-99.8969678092846,23.7564048337053
NORTHERN AMERICA,New Mexico,Chicoma Mountain,3524,1381,1011,36.0073,-106.3846,-106.65917256438,36.2283718857684,-106.65917256438,36.2283718857684
NORTHERN AMERICA,Utah,Mount Ellen,3513,2089,1506,38.1089,-110.8136,-110.789341680423,38.1956097915826,-110.849248802914,38.1438048860551
NORTHERN AMERICA,Nevada,Currant Mountain,3511,2008,1311,38.9097,-115.4246,-115.842425749677,39.23481036325,-115.842425749677,39.23481036325
NORTHERN AMERICA,Nuevo León,Cerro Peña Nevada,3510,2185,1901,23.77,-99.8602777777778,-100.206991816958,24.087832492108,-99.8971123174172,23.7564070456389
NORTHERN AMERICA,California,San Gorgonio Mountain,3506,3231,2140,34.0992,-116.8249,-117.217564554841,34.424512550653,-116.966826582725,34.1095309001865
EUROPE,Spain,Mulhacén,3479,3352,2112,37.0533333333333,-3.31138888888889,-3.70588784123336,37.3685462538087,-3.70588784123336,37.3685462538087
NORTHERN AMERICA,Alaska,Mount Torbert,3479,3311,2311,61.4086,-152.4125,-153.072833367376,61.7218545893405,-152.4296010498,61.3532754272825
ASIA-TROPICAL,Sulawesi,Mount Latimojong,3478,3452,2648,-3.385,120.024166666667,119.709174194977,-3.06630540440691,120.075773304189,-3.36252582912011
NORTHERN AMERICA,Arizona,Mount Baldy,3477,918,893,33.9059,-109.5626,-109.920491001591,34.2030223455608,-109.920491001591,34.2030223455608
SOUTHERN AMERICA,Panama,Volcán Barú,3474,3375,2289,8.80888888888889,-82.5427777777778,-82.8601428114525,9.12398699322967,-82.5190102552168,8.77828241400243
NORTHERN AMERICA,Nevada,Ruby Dome,3472,1748,1278,40.6217,-115.4754,-115.805116451689,40.8707175745657,-115.805116451689,40.8707175745657
ASIA-TROPICAL,Sumatera,Mount Leuser,3466,3338,2724,3.7975,97.2191666666667,96.9055269241774,4.11327857806443,96.9055269241774,4.11327857806443
NORTHERN AMERICA,Utah,Abajo Peak,3463,1359,1026,37.8395,-109.4624,-109.768149140534,38.0816831673384,-109.768149140534,38.0816831673384
ASIA-TEMPERATE,Kamchatka,Koryaksky,3456,3391,3099,53.3166666666667,158.683333333333,158.158761499554,53.6281619552029,158.158761499554,53.6281619552029
NORTHERN AMERICA,Montana,Hilgard Peak,3451,1658,1221,44.9166,-111.4593,-111.785002164775,45.1468100022178,-111.482895809692,44.8593221182105
NORTHERN AMERICA,Nevada,Hole in the Mountain Peak,3448,1709,1355,40.9508,-115.1224,-115.454011380894,41.2018681418139,-115.454011380894,41.2018681418139
NORTHERN AMERICA,New Mexico,Mount Taylor,3446,1339,653,35.2387,-107.6085,-107.902542334151,35.4800372748872,-107.57481737876,35.2618148603165
AFRICA,Chad,Emi Koussi,3445,2402,1266,19.7894444444444,18.5511111111111,18.5263602788751,19.698251271153,18.2370766354377,20.0864060395277
NORTHERN AMERICA,Nevada,Troy Peak,3445,1985,1448,38.3194,-115.5019,-115.553202306347,38.342045923887,-115.909465437354,38.6386370018116
NORTHERN AMERICA,Oregon,Mount Hood,3429,3233,2635,45.3735,-121.69595,-122.138479906874,45.683288809479,-121.749895226528,45.3827099725892
ASIA-TROPICAL,Jawa,Mount Slamet,3428,3414,3121,-7.239,109.22,108.907953722981,-6.92679922728404,109.229191860943,-7.29763884519475
NORTHERN AMERICA,Oaxaca,Cerro Zempoaltépetl,3420,3120,2472,17.1324,-96.0125,-96.3357986228563,17.4430158624459,-95.964041260122,17.1880095245437
NORTHERN AMERICA,Montana,Crazy Peak,3418,1893,1563,46.0181,-110.2768,-110.634495261409,46.2665234787262,-110.634495261409,46.2665234787262
NORTHERN AMERICA,Alaska,Mount Tom White,3411,3367,2371,60.6518,-143.6972,-144.329089851585,60.9578395268718,-143.738026297338,60.625004000732
EUROPE,Spain,Aneto,3404,2791,2171,42.6309916666667,0.656686111111111,0.234907712359574,42.9414602758781,0.234907712359574,42.9414602758781
NORTHERN AMERICA,Montana,Tweedy Mountain,3401,1516,1121,45.4805,-112.9655,-112.90265465445,45.4639722058695,-113.339235697195,45.7423016461515
NORTHERN AMERICA,Greenland,Mont Forel,3391,0,0,66.9354,-36.7873,-37.5753636231118,67.2402684134816,-37.5753636231118,67.2402684134816
NORTHERN AMERICA,Hidalgo,Cerro La Peña de Tepozán,3370,931,764,19.7697222222222,-98.2475,-98.20785378159,19.7643430229025,-98.2293256608176,19.7395048326427
NORTHERN AMERICA,Oaxaca,Cerro la Muralla,3370,2310,1247,17.1344,-97.664,-97.9825876647916,17.4405054339129,-97.9825876647916,17.4405054339129
NORTHERN AMERICA,Guanajuato,Cerro El Zamorano,3370,1466,1064,20.9337055555556,-100.180527777778,-100.506670632107,21.2395339910114,-100.205574034725,20.9463034920893
NORTHERN AMERICA,Alaska,Mount Foresta,3368,3368,3004,60.1912,-139.4323,-140.047329275007,60.4944526872021,-140.047329275007,60.4944526872021
NORTHERN AMERICA,California,Telescope Peak,3366,3457,3036,36.1698,-117.0892,-117.476371827001,36.4828366651615,-117.476371827001,36.4828366651615
NORTHERN AMERICA,Utah,Deseret Peak,3364,2062,1816,40.4595,-112.6264,-112.932519536325,40.6921099737205,-112.932519536325,40.6921099737205
EUROPE,Sicilia,Etna,3357,3357,2455,37.7505561444444,14.9939712555556,14.6100608862246,38.0545005232073,15.0342990706602,37.7307729929813
NORTHERN AMERICA,Durango,Cerro Gordo,3357,2789,1799,23.2060555555556,-104.944183333333,-104.978304317451,23.1225728267397,-104.917275569762,23.179009565274
ASIA-TROPICAL,Jawa,Arjuno-Welirang,3339,3338,2887,-7.765,112.589722222222,112.285827247171,-7.46012894890846,112.630107514935,-7.73827885343686
ASIA-TROPICAL,Jawa,Raung,3332,3197,2436,-8.125,114.041666666667,113.738150610877,-7.82175708563373,113.738150610877,-7.82175708563373
NORTHERN AMERICA,Chihuahua,Cerro Mohinora,3308,2695,2191,25.9560555555556,-107.04755,-107.381236327771,26.2572817958816,-107.381236327771,26.2572817958816
ASIA-TEMPERATE,Kamchatka,Shiveluch,3307,3275,2751,56.6536333333333,161.362966666667,160.817127661105,56.9513542918163,161.428737131982,56.6449499052027
NORTHERN AMERICA,Nevada,Matterhorn,3305,1471,1293,41.8107,-115.3745,-115.699624042923,42.0518437076928,-115.699624042923,42.0518437076928
NORTHERN AMERICA,California,San Jacinto Peak,3302,3255,3164,33.8147,-116.6794,-117.047891824381,34.1207215028528,-117.047891824381,34.1207215028528
NORTHERN AMERICA,Washington,Mount Baker,3288,3259,3043,48.7768,-121.8145,-122.26691852344,49.0744140175898,-122.26691852344,49.0744140175898
NORTHERN AMERICA,New Mexico,South Baldy,3288,1339,999,33.991,-107.1879,-107.143350445794,34.0145670003191,-107.173124270981,34.003305016037
NORTHERN AMERICA,Alaska,Mount Miller,3277,3171,2194,60.4605,-142.3012,-142.904501232304,60.754018495276,-142.344686764211,60.4300225795693
NORTHERN AMERICA,Arizona,Mount Graham,3269,2394,1977,32.7017,-109.8714,-110.202021677022,32.9793971810796,-109.859717240441,32.7386247886039
NORTHERN AMERICA,Nevada,Pilot Peak,3268,1980,1648,41.0211,-114.0774,-114.386969159335,41.2552976941396,-114.058915575305,41.0080868528236
ASIA-TROPICAL,Jawa,Mount Lawu,3265,3213,2890,-7.625,111.191666666667,110.894564577907,-7.32700562129342,111.229681606617,-7.58706671280504
NORTHERN AMERICA,New Mexico,Sandia Crest,3256,1662,1343,35.21,-106.4495,-106.699259685469,35.4131310521143,-106.699259685469,35.4131310521143
NORTHERN AMERICA,Utah,Flat Top Mountain,3238,1726,1224,40.3724,-112.1888,-112.138010483886,40.348208752383,-112.465597705009,40.5820334174054
NORTHERN AMERICA,Greenland,Greenland Ice Sheet High Point,3238,0,0,72.4667,-37.1,-38.0820079793736,72.755512577824,-38.0820079793736,72.755512577824
NORTHERN AMERICA,Washington,Glacier Peak,3214,2844,2353,48.1125,-121.1138,-121.550376119166,48.4032820958841,-121.550376119166,48.4032820958841
NORTHERN AMERICA,Alaska,Mount Steller,3205,3150,2567,60.5199,-143.0932,-143.68430246539,60.8087148504174,-143.119119469175,60.4869144235534
NORTHERN AMERICA,Oregon,Mount Jefferson,3201,2648,2281,44.6743,-121.7996,-122.208172779771,44.9639157472095,-122.208172779771,44.9639157472095
NORTHERN AMERICA,Zacatecas,Cerro El Refugio,3200,1505,1252,24.5761111111111,-101.104722222222,-101.421017341744,24.8649878013961,-101.129060076296,24.5899670971951
NORTHERN AMERICA,Montana,Mount Cleveland,3194,2067,1916,48.9249333333333,-113.848151851852,-113.82233834073,48.8363123287658,-113.87005911984,48.937475273367
NORTHERN AMERICA,San Luis Potosí,Cerro Grande,3190,1376,1028,23.6668222222222,-100.887261111111,-101.201396986515,23.9556567128719,-100.909071555751,23.6625318749156
NORTHERN AMERICA,California,Lassen Peak,3189,2093,1278,40.4882,-121.505,-121.885189986447,40.7771425464724,-121.500221702464,40.5076065826979
NORTHERN AMERICA,Oregon,South Sister,3158,2535,1478,44.1035,-121.7693,-122.168464943937,44.3902983004222,-122.168464943937,44.3902983004222
NORTHERN AMERICA,Alaska,Mount Kimball,3155,2468,1904,63.239,-144.6419,-144.535664629335,63.3158898057711,-144.670287288431,63.2733126686717
NORTHERN AMERICA,Alaska,Mount Seattle,3155,3155,3045,60.068,-139.1893,-139.763068793021,60.3524101075812,-139.277667003968,60.039472994186
NORTHERN AMERICA,Utah,Navajo Mountain,3154,2032,1827,37.0343,-110.8697,-111.17928878148,37.2820958690911,-111.17928878148,37.2820958690911
NORTHERN AMERICA,Idaho,Cache Peak,3152,1580,1309,42.1856,-113.6611,-113.958891234844,42.4056451127555,-113.958891234844,42.4056451127555
NORTHERN AMERICA,Wyoming,Laramie Peak,3132,1321,1136,42.2681,-105.4425,-105.736650700865,42.4843701605995,-105.736650700865,42.4843701605995
NORTHERN AMERICA,Coahuila,Cerro El Centinela,3122,1981,1727,25.1359,-103.2304,-103.226381353968,25.207260553311,-103.246215478609,25.1215005677013
NORTHERN AMERICA,Montana,Table Mountain,3117,1411,1022,45.7426,-112.4619,-112.776474542254,45.9613816325029,-112.776474542254,45.9613816325029
NORTHERN AMERICA,Alaska,Redoubt Volcano,3108,3108,2909,60.4854,-152.7442,-153.316702303046,60.7650514526447,-152.720619887291,60.5217017454524
SOUTHERN AMERICA,Dominican Republic,Pico Duarte,3098,2553,2028,19.0280777777778,-71.0014888888889,-71.013403703441,18.9376913764931,-71.3012666875479,19.3123591784838
NORTHERN AMERICA,Baja California,Picacho del Diablo,3095,2707,2463,30.9925,-115.375288888889,-115.709289417239,31.2801972203508,-115.709289417239,31.2801972203508
NORTHERN AMERICA,Montana,Mount Stimson,3093,2094,1989,48.5142,-113.6104,-113.985336268122,48.7625541470234,-113.6586422033,48.5023643992358
NORTHERN AMERICA,British Columbia,Mount Ratz,3090,3036,2230,57.393,-132.3031,-132.825021784,57.6712250747577,-132.28052219608,57.463530264063
NORTHERN AMERICA,Montana,Kintla Peak,3080,2001,1826,48.9437,-114.1714,-114.560322808529,49.1984649087577,-114.193178978701,48.9563318443143
AFRICA,Réunion,Piton des Neiges,3069,3069,2765,-21.0988888888889,55.4788888888889,55.1828607722316,-20.8192252846652,55.4445837076368,-21.0723766762864
NORTHERN AMERICA,California,Mount San Antonio,3069,2689,2111,34.2891,-117.6463,-117.627041790067,34.1991743837084,-117.703037955154,34.2712824870729
PACIFIC,Hawaiian Is.,Haleakalā,3055,3059,3055,20.7115166666667,-156.2554,-156.551570540096,20.9908553504673,-156.551570540096,20.9908553504673
NORTHERN AMERICA,Alaska,Iliamna Volcano,3053,3053,2917,60.0321,-153.0915,-153.645996758518,60.3055522234472,-153.152532611732,60.0060116797221
NORTHERN AMERICA,British Columbia,Kates Needle,3053,3050,2974,57.0449,-132.0451,-132.555889699336,57.3197677653886,-132.555889699336,57.3197677653886
ASIA-TROPICAL,Bali,Mount Agung,3031,3031,3031,-8.34194444444445,115.507777777778,115.231390039995,-8.06575665638485,115.231390039995,-8.06575665638485
NORTHERN AMERICA,Aguascalientes,Sierra Fría,3030,749,599,22.2738944444444,-102.607261111111,-102.643598814115,22.2761932043368,-102.901295612488,22.5468480584943
NORTHERN AMERICA,Coahuila,Sierra la Madera,3030,2263,1821,27.0345,-102.3922,-102.306825325407,26.9846112834418,-102.384894523265,27.0162242741485
ASIA-TROPICAL,Maluku,Mount Binaiya,3027,3027,2962,-3.17333333333333,129.455,129.181609946723,-2.89878425066981,129.462692724691,-3.22890507081472
NORTHERN AMERICA,Nevada,Hayford Peak,3025,2089,1108,36.6577,-115.2008,-115.551996528764,36.9407217425838,-115.203989532069,36.7046939439053
NORTHERN AMERICA,British Columbia,Ulysses Mountain,3024,2039,1809,57.3464,-124.0928,-124.56216951179,57.5986119665024,-124.56216951179,57.5986119665024
ASIA-TEMPERATE,Oman,Jabal Shams,3019,2630,2347,23.2373881944444,57.2637936944444,57.312824773857,23.3165243378975,57.2932591048831,23.2623521380179
NORTHERN AMERICA,California,Eagle Peak,3016,1648,1212,41.2835,-120.2007,-120.563716968901,41.5549875970044,-120.563716968901,41.5549875970044
AFRICA,Bioko,Pico Basilé,3011,2971,2877,3.58333333333333,8.76666666666667,8.49444929295331,3.85698843225953,8.80505315030974,3.55407731529367
NORTHERN AMERICA,Oregon,Sacajawea Peak,3000,1683,1554,45.245,-117.2929,-117.668542830969,45.5088756693297,-117.668542830969,45.5088756693297
NORTHERN AMERICA,Nevada,Star Peak,2999,1697,1325,40.5224,-118.1708,-118.229399386183,40.5317057594886,-118.152689220597,40.5092056792243
NORTHERN AMERICA,Alaska,Mount Hesperus,2996,2522,2422,61.8036,-154.1469,-154.722443437528,62.0730795788656,-154.205440994408,61.8252579158727
SOUTHERN AMERICA,Venezuela,Pico da Neblina,2995,2899,2708,0.802747222222222,-66.0064291666667,-66.2747572237948,1.07300803546176,-66.2747572237948,1.07300803546176
NORTHERN AMERICA,Montana,McDonald Peak,2994,2188,2024,47.3826,-113.9191,-114.279716024313,47.6261895050638,-114.279716024313,47.6261895050638
NORTHERN AMERICA,Nevada,Mount Tobin,2980,1605,1259,40.3765,-117.5261,-117.810379720301,40.591698543042,-117.500371892263,40.3736603743148
NORTHERN AMERICA,Arizona,Chiricahua Peak,2976,1370,1083,31.8456,-109.291,-109.593101810011,32.1021287910465,-109.593101810011,32.1021287910465
NORTHERN AMERICA,Oregon,Steens Mountain,2968,1747,1450,42.6364,-118.5767,-118.90343050747,42.8772329842472,-118.545555585919,42.6233877825222
NORTHERN AMERICA,British Columbia,Skihist Mountain,2968,2718,2164,50.1878,-121.9032,-122.323599674181,50.4558006237284,-122.323599674181,50.4558006237284
NORTHERN AMERICA,Nevada,Granite Peak,2966,1436,1091,41.6681,-117.5889,-117.870256379599,41.878393290117,-117.61717575291,41.6626493562273
ASIA-TROPICAL,East Timor,Pico do Ramelau,2963,2763,2244,-8.90666666666667,125.493333333333,125.22272088239,-8.63789891272944,125.22272088239,-8.63789891272944
EUROPE,Germany,Zugspitze,2962,2358,2232,47.4211111111111,10.9863888888889,10.5891042851862,47.6895826839596,11.018544042644,47.4496640886684
ASIA-TROPICAL,Philippines,Mount Apo,2954,2818,2017,6.9875,125.270833333333,125.001758754437,7.25674829736814,125.001758754437,7.25674829736814
NORTHERN AMERICA,Yukon,Keele Peak,2952,1988,1741,63.4314,-130.3243,-130.511870155477,63.459491495814,-130.917738783989,63.6938839086263
EUROPE,Andorra,Pic de Coma Pedrosa,2943,2212,1759,42.5916666666667,1.44361111111111,1.46416878863049,42.678849898953,1.0787919998234,42.8605631995447
ANTARCTIC,South Georgia,Mount Paget,2934,3032,3032,-54.4408333333333,-36.5552777777778,-37.0261314569288,-54.1637040496945,-37.0261314569288,-54.1637040496945
NORTHERN AMERICA,Greenland,Petermann Bjerg,2933,0,0,73.0905,-28.6187,-29.53953970328,73.3532120258499,-29.53953970328,73.3532120258499
EUROPE,Bulgaria,Musala,2925,2259,1536,42.1797222222222,23.5852777777778,23.2279933133613,42.4434410194208,23.5653621461176,42.1941699435073
ASIA-TROPICAL,Philippines,Mount Pulag,2922,2448,2039,16.5836111111111,120.883611111111,120.607880264255,16.8487772704916,120.607880264255,16.8487772704916
NORTHERN AMERICA,Durango,Sinaloa High Point,2920,2532,2181,24.3386111111111,-106.1525,-106.442658644434,24.6034464801733,-106.442658644434,24.6034464801733
EUROPE,Greece,Olympus,2918,2847,2357,40.0855555555556,22.3586111111111,22.0123796076432,40.3492292671489,22.0123796076432,40.3492292671489
NORTHERN AMERICA,Chiapas,Cerro Tzontehuitz,2910,2152,1233,16.8358,-92.5894,-92.573394598988,16.928012183379,-92.6062434652376,16.851205802627
NORTHERN AMERICA,Montana,Mount Edith,2897,1387,1121,46.4318,-111.1862,-111.47656053909,46.6317279230218,-111.27383593074,46.4363994995118
NORTHERN AMERICA,Oregon,Mount McLoughlin,2895,2294,1728,42.4445,-122.3156,-122.671712182928,42.7079396551927,-122.342038977857,42.4496733142913
SOUTHERN AMERICA,Espírito Santo,Pico da Bandeira,2891,2392,1979,-20.4355555555556,-41.7977777777778,-42.0758241308106,-20.1717141515452,-41.8367327353024,-20.442912796072
NORTHERN AMERICA,Michoacán,Cerro Las Conchas,2890,2335,1465,18.7215,-102.974,-102.893615748429,18.7777214615271,-103.249632851301,18.9830650711589
NORTHERN AMERICA,Arizona,Miller Peak,2886,1501,1269,31.3928,-110.293,-110.598703823678,31.6540311410724,-110.271918251976,31.3973528905963
NORTHERN AMERICA,Arizona,Mount Wrightson,2882,2001,1479,31.6959,-110.8482,-111.154481554299,31.9574761273066,-110.863553133301,31.7301247151708
AFRICA,Madagascar,Maromokotro,2876,2418,1641,-14.0227777777778,48.9658333333333,48.68996301907,-13.7522366366117,48.9696761610248,-14.0868143923622
ASIA-TROPICAL,Sulawesi,Moncong Lompotabang,2874,2844,1834,-5.34667906944444,119.931666530556,119.670358638667,-5.08415287259664,119.88903471567,-5.3781016754365
NORTHERN AMERICA,Alaska,Mount Neacola,2873,2742,2370,60.7981,-153.3959,-153.930139999805,61.0563636108929,-153.930139999805,61.0563636108929
NORTHERN AMERICA,Idaho,She Devil,2873,2496,2213,45.324,-116.5406,-116.899262417638,45.5754196487845,-116.601131644862,45.3330268072267
NORTHERN AMERICA,Washington,Mount Stuart,2871,2530,2046,47.4751,-120.9024,-121.287623637763,47.7339862579041,-120.758275562224,47.5186774971893
SOUTHERN AMERICA,Honduras,Cerro Las Minas,2870,2386,1926,14.5339444444444,-88.6802,-88.9481450241006,14.7950320753922,-88.6509194642875,14.5940902098749
NORTHERN AMERICA,Alaska,Shishaldin Volcano,2869,2869,2625,54.7536,-163.969488888889,-164.419906961159,55.0126942444227,-164.419906961159,55.0126942444227
EUROPE,Slovenia,Triglav,2864,2555,2286,46.3783333333333,13.8363888888889,13.4592786764104,46.6374744995625,13.4592786764104,46.6374744995625
NORTHERN AMERICA,Greenland,Stauning Alper,2831,0,0,72.1167,-24.9,-25.7408851379626,72.3709054034171,-25.7408851379626,72.3709054034171
NORTHERN AMERICA,Alaska,Mount Aylesworth,2830,2830,2215,59.9242,-138.7985,-139.310690764774,60.1796927179568,-139.310690764774,60.1796927179568
AFRICA,Cape Verde,Pico do Fogo,2829,2829,2829,14.9492694444444,-24.3403694444444,-24.6049195422999,15.2073652819362,-24.6049195422999,15.2073652819362
NORTHERN AMERICA,Arizona,Kaibab Plateau High Point,2812,1139,1057,36.3958,-112.1509,-112.456679435013,36.6423733438409,-112.456679435013,36.6423733438409
SOUTHERN AMERICA,Venezuela,Monte Roraima,2810,2279,1605,5.14194444444444,-60.7641666666667,-60.7468022510615,5.23169553028214,-60.7761168934198,5.12996239660523
AUSTRALASIA,New Zealand North,Mount Ruapehu,2797,2235,1567,-39.2894444444444,175.5625,175.235135830356,-39.0331273444047,175.535317441134,-39.2925487963468
NORTHERN AMERICA,Arizona,Mount Lemmon,2792,2047,1684,32.443,-110.7885,-111.087569610005,32.6947289410489,-110.834174930845,32.4448403492616
NORTHERN AMERICA,Washington,Mount Shuksan,2784,2570,2528,48.8314444444444,-121.602988888889,-121.986487603046,49.0824553683275,-121.986487603046,49.0824553683275
NORTHERN AMERICA,Nevada,Jackson Mountain,2773,1497,1162,41.3033,-118.4163,-118.352251210886,41.2908114669886,-118.723477432373,41.5335302814019
NORTHERN AMERICA,Yukon,Mount Nirvana,2773,2145,2007,61.8752388888889,-127.680627777778,-127.498064794042,61.9073765086695,-128.18639556762,62.1107117709312
SOUTHERN AMERICA,Venezuela,Mount Roraima,2772,2271,2073,5.21361111111111,-60.7466666666667,-61.0056106164989,5.47403879543328,-61.0056106164989,5.47403879543328
NORTHERN AMERICA,Washington,Jack Mountain,2766,2498,2293,48.7728,-120.9562,-121.336782025796,49.0231934660493,-121.336782025796,49.0231934660493
EUROPE,Macedonia,Korab,2764,2430,1652,41.7908333333333,20.5461111111111,20.2094462682147,42.0413081269139,20.2094462682147,42.0413081269139
NORTHERN AMERICA,Nayarit,Cerro Del Faro,2760,2376,1751,21.3108333333333,-104.049444444444,-104.317601431585,21.5610214671926,-104.018356021886,21.3354418218118
NORTHERN AMERICA,Yukon,Mount Macdonald,2760,2001,1736,64.7256,-132.7781,-133.36522408164,64.9735740340707,-133.36522408164,64.9735740340707
NORTHERN AMERICA,British Columbia,Howson Peak,2759,2528,2218,54.4185,-127.7441,-127.897058346302,54.4370445581319,-128.196420955421,54.6811017744743
NORTHERN AMERICA,California,Mount Eddy,2755,2018,1384,41.3196,-122.479,-122.377852088421,41.2720587130517,-122.446439493211,41.3486336763115
NORTHERN AMERICA,British Columbia,Thudaka Mountain,2748,1549,1462,57.9272,-126.8485,-127.305628681212,58.1674101333513,-126.855338264278,57.9437652490997
NORTHERN AMERICA,Greenland,Patuersoq,2740,0,0,60.8333,-44.2333,-44.7449681940365,61.080342190037,-44.7449681940365,61.080342190037
NORTHERN AMERICA,Alaska,Kichatna Spire,2739,2541,2127,62.4231,-152.7231,-153.260020554082,62.6686793490482,-153.260020554082,62.6686793490482
NORTHERN AMERICA,Washington,Mount Spickard,2737,2264,2109,48.9697,-121.2405,-121.618579346769,49.2159573927379,-121.618579346769,49.2159573927379
NORTHERN AMERICA,Alaska,Mount Isto,2736,2119,1758,69.2025,-143.802,-144.503246163744,69.4477449003806,-143.700738615125,69.1981225337278
SOUTHERN AMERICA,Honduras,Cerro El Pital,2730,2306,1993,14.3844444444444,-89.1291666666667,-89.3839193014092,14.6333501687518,-89.1657461259465,14.3939768038352
NORTHERN AMERICA,British Columbia,Mount Jancowski,2729,2388,2312,56.3372,-129.9817,-129.950003412224,56.2470724444732,-130.429786969244,56.5830513375119
NORTHERN AMERICA,Oregon,Mount Scott,2722,1315,798,42.9227777777778,-122.016111111111,-122.353622868216,43.1703182380608,-122.006252466481,42.9142708216699
NORTHERN AMERICA,Alaska,Mount Chamberlin,2713,2260,1851,69.2775,-144.9107,-145.60843446784,69.5203405322762,-145.60843446784,69.5203405322762
NORTHERN AMERICA,Chihuahua,Cerro San José,2710,1251,851,30.5483,-108.6167,-108.898432037803,30.7918554570152,-108.611125532132,30.5260649319499
NORTHERN AMERICA,Arizona,Canyon Rim View High Point,2707,1692,1314,36.3013888888889,-111.996388888889,-112.290139562335,36.5370924789907,-112.290139562335,36.5370924789907
NORTHERN AMERICA,Alaska,Sovereign Mountain,2697,2262,1467,62.1311,-148.6044,-149.128308459668,62.3735913543793,-149.128308459668,62.3735913543793
NORTHERN AMERICA,California,Mount Pinos,2696,2298,1349,34.8128,-119.1454,-119.452307152389,35.0648510571102,-119.17269507863,34.8917150530457
SOUTHERN AMERICA,Haiti,Pic la Selle,2674,2674,2103,18.3602388888889,-71.9766833333333,-72.2350270383055,18.6061214675014,-72.2350270383055,18.6061214675014
NORTHERN AMERICA,Texas,Guadalupe Peak,2667,1543,1292,31.89155,-104.86065,-105.098312844588,32.092571014978,-104.881102772378,31.8876253641349
NORTHERN AMERICA,Montana,Snowshoe Peak,2665,2022,1654,48.2231,-115.689,-115.616689803177,48.2983053507002,-115.744639426762,48.2128792391839
EUROPE,Macedonia,Velika Rudoka,2660,2238,2000,41.9183333333333,20.7763888888889,20.4516787976886,42.1601937128311,20.4516787976886,42.1601937128311
NORTHERN AMERICA,Washington,Remmel Mountain,2649,1417,1035,48.9234,-120.1968,-120.562401858024,49.1618762305784,-120.562401858024,49.1618762305784
NORTHERN AMERICA,Arizona,Mica Mountain,2641,1645,1151,32.22,-110.543333333333,-110.825559081841,32.4583414232424,-110.562271680983,32.2332097762836
NORTHERN AMERICA,Sonora,Cerro Pico Guacamayas,2620,1439,1106,29.9533333333333,-108.839444444444,-109.114159035441,30.1925090572008,-109.114159035441,30.1925090572008
NORTHERN AMERICA,Nunavut,Barbeau Peak,2616,1122,834,81.9147611111111,-75.0092333333333,-76.7317430496838,82.1460075694199,-76.7317430496838,82.1460075694199
EUROPE,Switzerland,Grauspitz,2600,2169,2139,47.0527777777778,9.58138888888889,9.23523336120914,47.2889594689254,9.23523336120914,47.2889594689254
NORTHERN AMERICA,Greenland,Avannaarsua High Point,2600,0,0,77.5,-47.6167,-48.7176878681275,77.7318122645997,-48.7176878681275,77.7318122645997
NORTHERN AMERICA,Alaska,8517 Peak,2596,2233,1816,60.9283,-142.5237,-142.557632353308,61.0172765180747,-142.580546643087,60.9050891237288
NORTHERN AMERICA,Alaska,Devils Paw,2593,2588,2306,58.7289,-133.8402,-134.29321659706,58.9631806995474,-134.29321659706,58.9631806995474
NORTHERN AMERICA,Alaska,Hanagita Peak,2592,2430,2260,61.067,-143.7075,-144.193433799881,61.2990560452585,-144.193433799881,61.2990560452585
NORTHERN AMERICA,British Columbia,Shedin Peak,2588,2140,1772,55.9392,-127.4799,-127.89855614763,56.1719628372822,-127.527967653575,55.923428194373
NORTHERN AMERICA,Alaska,Stony Peak,2587,2207,2085,61.495,-153.6224,-154.114120033043,61.7274777502965,-154.114120033043,61.7274777502965
NORTHERN AMERICA,Arizona,Hualapai Peak,2568,1501,1057,35.0751,-113.8979,-114.190025181984,35.3152773956396,-113.926027214949,35.0857779972807
NORTHERN AMERICA,Idaho,Cinnabar Mountain,2563,1426,1071,42.9805,-116.6575,-116.927033558223,43.1767297789671,-116.927033558223,43.1767297789671
NORTHERN AMERICA,Texas,Baldy Peak,2554,877,697,30.6356,-104.1737,-104.211712711546,30.611736192634,-104.405175485626,30.8347823143636
NORTHERN AMERICA,Alaska,Tetlin Peak,2550,1524,1227,62.6215,-143.1084,-143.140015151335,62.5799999824788,-143.611526775358,62.8505133714916
NORTHERN AMERICA,Chiapas,Cerro Tres Picos,2550,2516,2220,16.197,-93.6112,-93.8517835141129,16.4300524824872,-93.8517835141129,16.4300524824872
NORTHERN AMERICA,Washington,Mount Saint Helens,2549,2407,1991,46.1914,-122.1956,-122.529588413655,46.4209952897423,-122.139566085951,46.1988083692438
EUROPE,Romania,Moldoveanu,2544,2113,1460,45.6,24.7361111111111,24.7135816888983,45.6876766309171,24.7809379375012,45.6381849863866
NORTHERN AMERICA,Alaska,Necons Peak,2541,2196,1883,61.1125,-153.469,-153.946043068129,61.3401894110837,-153.529892976164,61.0942238566462
EUROPE,Albania,Zla Kolata,2525,2303,1912,42.485,19.8961111111111,19.5851292216711,42.7143605132734,19.9328875811902,42.4582122120228
NORTHERN AMERICA,Alaska,Mount Igikpak,2523,2303,2032,67.4129,-154.9656,-155.555955616505,67.6375573644985,-155.555955616505,67.6375573644985
NORTHERN AMERICA,Alaska,Mount Pavlof,2515,2515,2430,55.4173,-161.8932,-162.296364836433,55.644470600541,-162.296364836433,55.644470600541
NORTHERN AMERICA,Arizona,Kanabownits Lookout,2512,1742,1239,36.29,-112.2125,-112.286320461944,36.248207007881,-112.484712397439,36.5092634654575
NORTHERN AMERICA,Alaska,Mount Veniaminof,2507,2467,2153,56.2194,-159.2975,-159.707803055777,56.4449981039579,-159.707803055777,56.4449981039579
EUROPE,Slovakia,Rysy,2501,1832,1392,49.1794444444444,20.0880555555556,19.7420089862901,49.4049329335376,20.1413042253338,49.1446790349539
NORTHERN AMERICA,Alaska,Isanotski Peaks,2471,2471,2373,54.768,-163.7291,-164.11709741597,54.9911961387056,-163.74594232641,54.7313024722732
EUROPE,Norway,Galdhøpiggen,2469,1987,1754,61.6363888888889,8.3125,7.83765655518143,61.8599503037537,8.27483563528488,61.6678356596263
NORTHERN AMERICA,California,Mount Linn,2468,2101,1266,40.0365,-122.8542,-123.150387385977,40.2640203421706,-123.150387385977,40.2640203421706
NORTHERN AMERICA,Alaska,Mount Chosin Few,2464,2396,2184,60.8299,-145.1335,-145.280626746634,60.7825683704794,-145.591938332476,61.0511066533929
NORTHERN AMERICA,Alaska,Accomplishment Peak,2452,1779,1322,68.4433,-148.0947,-148.701392084656,68.6628002674503,-148.701392084656,68.6628002674503
SOUTHERN AMERICA,Honduras,Pico Bonito,2450,2447,1833,15.5575,-86.8756,-87.1056020721066,15.7797379559143,-86.9025859730905,15.5358543207288
NORTHERN AMERICA,Alaska,Peak 8010 (Alaska),2441,2380,2365,61.1605,-144.8129,-145.271832990996,61.379276703343,-145.271832990996,61.379276703343
NORTHERN AMERICA,Alaska,Bashful Peak,2440,2425,2175,61.3076,-148.8697,-149.330987104646,61.5262768169012,-149.330987104646,61.5262768169012
NORTHERN AMERICA,Greenland,Sukkertoppen,2440,0,0,66.2,-52.35,-52.8991610039729,66.4185199993773,-52.8991610039729,66.4185199993773
NORTHERN AMERICA,Washington,Mount Olympus,2432,2282,2099,47.8013,-123.7108,-124.039574005046,48.0209542924246,-124.039574005046,48.0209542924246
NORTHERN AMERICA,British Columbia,Mount Crysdale,2429,1770,1507,55.9383,-123.421,-123.761340605709,56.1272041873904,-123.761340605709,56.1272041873904
NORTHERN AMERICA,California,Clark Mountain,2418,1454,1025,35.5256,-115.5887,-115.533181273543,35.5349157718304,-115.867490701262,35.7531709881138
NORTHERN AMERICA,Arizona,Cape Final,2413,1683,1254,36.1422222222222,-111.908055555556,-112.167795322046,36.3508851536169,-111.919886575031,36.128117643449
NORTHERN AMERICA,Yukon,Fox Mountain,2404,1284,1067,61.9224,-133.3677,-133.830974197617,62.137741329797,-133.830974197617,62.137741329797
EUROPE,Bosnia-Herzegovina,Veliki Maglić,2386,1905,1581,43.2811111111111,18.7330555555556,18.4352661536718,43.4982325517603,18.4352661536718,43.4982325517603
NORTHERN AMERICA,Texas,Emory Peak,2381,1382,1038,29.246,-103.3053,-103.525501157509,29.4387533433695,-103.525501157509,29.4387533433695
NORTHERN AMERICA,Yukon,Mount Frank Rae,2362,1330,1114,64.4706,-138.5553,-138.998722928559,64.6588848571473,-138.595526876994,64.473420009885
NORTHERN AMERICA,Montana,Northwest Peak,2350,1312,1028,48.9632,-115.9683,-115.992424084742,49.0057748235812,-116.270137663976,49.160495402502
NORTHERN AMERICA,Nunavut,Beitstad Peak,2347,2065,882,78.8007,-79.5292,-79.0967537923509,78.7704289031545,-80.6375614192709,79.0105585844997
SOUTHERN AMERICA,Haiti,Pic Macaya,2347,2347,2022,18.3822,-74.0243,-74.2516501185473,18.5989398485089,-74.2516501185473,18.5989398485089
SOUTHERN AMERICA,Honduras,Sierra de Agalta High Point,2335,2026,1687,14.9576,-85.9165,-85.8842087762589,14.8715138494502,-85.9027892256989,14.941557746872
NORTHERN AMERICA,Alaska,Mount Griggs,2332,2317,2095,58.3534,-155.0958,-155.499149245341,58.5639728401806,-155.078275446166,58.3895350064085
NORTHERN AMERICA,Greenland,Reval Toppen,2320,0,0,76.6606,-25.7067,-26.6261131774422,76.8688052897892,-26.6261131774422,76.8688052897892
NORTHERN AMERICA,Oaxaca,Cerro Atravesado,2310,2219,1603,16.7652,-94.4514,-94.670131557397,16.9747662934834,-94.4236877575169,16.7399420972596
NORTHERN AMERICA,Alaska,Cleave Peak,2301,2235,2127,61.1256,-145.3006,-145.73269800072,61.3323498851013,-145.73269800072,61.3323498851013
NORTHERN AMERICA,Arizona,Vishnu Temple,2296,1635,1358,36.0888888888889,-111.935555555556,-112.182506578211,36.2874873345948,-112.182506578211,36.2874873345948
EUROPE,Svalbard,Jan Mayen,2277,2277,2277,71.0822222222222,-8.17833333333333,-8.81743951394137,71.2859772061575,-8.81743951394137,71.2859772061575
NORTHERN AMERICA,Greenland,Perserajoq,2259,0,0,71.4,-51.9667,-52.6113173793577,71.6031179041001,-52.6113173793577,71.6031179041001
SOUTHERN AMERICA,Jamaica,Blue Mountain Peak,2256,2256,2046,18.0464444444444,-76.5788444444444,-76.7935414095001,18.252276308665,-76.7935414095001,18.252276308665
NORTHERN AMERICA,Washington,Abercrombie Mountain,2229,1622,1206,48.9284,-117.46,-117.752825623808,49.1202345469005,-117.752825623808,49.1202345469005
AUSTRALASIA,New South Wales,Mount Kosciuszko,2228,1792,1437,-36.4561111111111,148.263333333333,148.007267943953,-36.2487011610003,148.257592699263,-36.3954172288757
NORTHERN AMERICA,Yukon,Grey Hunter Peak,2214,1494,853,63.1357,-135.6359,-136.018123224066,63.3064086100985,-135.544901763831,63.1655908657444
NORTHERN AMERICA,Nunavut,Outlook Peak,2210,1627,1070,79.7397,-91.4061,-91.5425858249503,79.7018326617012,-92.5451008992013,79.9372450772756
NORTHERN AMERICA,South Dakota,Black Elk Peak,2208,784,584,43.8659,-103.5318,-103.748127602621,44.0200916009564,-103.536092342675,43.8740450183946
NORTHERN AMERICA,Greenland,Renland High Point,2200,0,0,71.3333,-26.3333,-26.9587940901491,71.5305642716467,-26.9587940901491,71.5305642716467
NORTHERN AMERICA,British Columbia,Golden Hinde,2197,2183,1744,49.6627,-125.747,-126.055402690728,49.8607648379985,-126.055402690728,49.8607648379985
NORTHERN AMERICA,Washington,Copper Butte,2179,1239,749,48.7025,-118.4656,-118.751766963523,48.8911211190236,-118.751766963523,48.8911211190236
NORTHERN AMERICA,British Columbia,Simpson Peak,2170,1195,1054,59.7234,-131.448,-131.838157184683,59.9173780971799,-131.484873286509,59.7182336007901
EUROPE,Serbia,Midžor,2169,1690,1317,43.3947222222222,22.6819444444444,22.4115569740092,43.5916554916542,22.4115569740092,43.5916554916542
NORTHERN AMERICA,Aleutian Is.,Mount Vsevidof,2149,2149,2149,53.1256,-168.6938,-169.018450831509,53.3193821551633,-169.018450831509,53.3193821551633
NORTHERN AMERICA,Alaska,Mount Douglas,2149,2149,2103,58.8598,-153.5353,-153.912478963618,59.0532042571439,-153.912478963618,59.0532042571439
NORTHERN AMERICA,Nunavut,Mount Odin,2143,2135,2103,66.5468,-65.4289,-65.9178093480031,66.7383473166672,-65.9178093480031,66.7383473166672
NORTHERN AMERICA,Montana,West Butte,2129,1063,856,48.9316,-111.5324,-111.748848857014,49.0724379452372,-111.51281828531,48.9242697526286
NORTHERN AMERICA,Alaska,Mount Chiginagak,2111,2111,2053,57.1334,-156.9912,-157.345173515796,57.323046601851,-157.345173515796,57.323046601851
EUROPE,Iceland,Hvannadalshnúkur,2110,2110,1771,64.0141666666667,-16.6775,-17.1144633768118,64.2043580517317,-16.7331560107149,63.9829837554654
NORTHERN AMERICA,Montana,Bearpaw Baldy,2109,861,667,48.1487,-109.6509,-109.862532700469,48.2883063867441,-109.646934790419,48.158097976853
NORTHERN AMERICA,Alaska,Copper Peak,2108,2024,2009,61.3297,-144.9599,-145.35830991641,61.5179731034771,-145.35830991641,61.5179731034771
SOUTHERN AMERICA,Honduras,Pico Mogotón,2106,1388,1077,13.7630777777778,-86.3983166666667,-86.5944648847563,13.9533055395456,-86.5944648847563,13.9533055395456
NORTHERN AMERICA,Greenland,Gaaseland High Point,2100,0,0,70.2,-27.6667,-28.2304174281882,70.3884745757004,-28.2304174281882,70.3884745757004
EUROPE,Sweden,Kebnekaise – Nordtoppen,2097,1574,1363,67.9044444444445,18.5269444444444,18.0204944344367,68.0933409600704,18.5246844708358,67.8811780350911
NORTHERN AMERICA,Baja California Sur,Sierra La Laguna High Point,2090,1633,1290,23.5391833333333,-109.954183333333,-110.161953028648,23.7292437333243,-109.973131159947,23.5239679336534
NORTHERN AMERICA,Alaska,Double Peak,2078,2067,1761,60.7296,-152.5861,-152.971445674459,60.9161252235995,-152.533917043755,60.7573664523144
EUROPE,Ukraine,Gora Goverla,2061,1393,1065,48.16,24.5002777777778,24.2293553844364,48.3387824546192,24.2293553844364,48.3387824546192
NORTHERN AMERICA,North Carolina,Mount Mitchell,2037,1443,1092,35.7649,-82.2651,-82.499704828044,35.9547024999414,-82.499704828044,35.9547024999414
NORTHERN AMERICA,North Carolina,Clingmans Dome,2025,1385,944,35.5629,-83.4986,-83.7312803487928,35.7515414782276,-83.5156390133719,35.5489737015565
NORTHERN AMERICA,North Carolina,Mount Guyot,2019,1564,1081,35.7052777777778,-83.2575,-83.2462779516837,35.7504761939977,-83.4899332378013,35.8944556339958
NORTHERN AMERICA,Alaska,Truuli Peak,2015,1791,1490,59.9129,-150.4348,-150.799542577625,60.0937526089968,-150.547400057536,59.9371315090995
NORTHERN AMERICA,Tennessee,Mount Le Conte,2010,1614,1192,35.6541666666667,-83.4366666666667,-83.6679503110276,35.8419064481622,-83.418939577133,35.6686309797893
NORTHERN AMERICA,Alaska,Snow Tower,2003,2003,1984,58.1724,-133.4009,-133.745300631841,58.3522636307976,-133.395210507155,58.1529620042405
NORTHERN AMERICA,North Carolina,Mount Gibbes,2003,1442,1095,35.7391666666667,-82.285,-82.5157505597331,35.9252823344903,-82.5157505597331,35.9252823344903
NORTHERN AMERICA,Greenland,Favres Bjerg,2000,0,0,73.95,-23.2,-23.8590498876137,74.1293214308234,-23.8590498876137,74.1293214308234
NORTHERN AMERICA,Alaska,Mount Harper,1994,1250,1053,64.237,-143.8442,-144.236865651477,64.4052477946352,-143.853159614484,64.2173999484367
NORTHERN AMERICA,Alaska,Pogromni Volcano,1991,1991,1615,54.5705,-164.6926,-165.004048772215,54.7492746405942,-165.004048772215,54.7492746405942
NORTHERN AMERICA,Alaska,Isthmus Peak,1991,1875,1497,60.5772,-148.8915,-149.259330149079,60.7556993765324,-149.259330149079,60.7556993765324
SOUTHERN AMERICA,Cuba,Pico Turquino,1974,1974,1678,19.9897611111111,-76.8359166666667,-77.026426362259,20.1688289303651,-76.8303274190653,19.9724626380926
NORTHERN AMERICA,North Carolina,Richland Balsam,1954,1208,812,35.3672222222222,-82.99,-83.2142629158077,35.548765865947,-82.9606648100924,35.3957456631023
NORTHERN AMERICA,Baja California Sur,Volcán Las Tres Vírgenes,1951,1723,1483,27.47,-112.5919,-112.792497399111,27.6476797089893,-112.577180926419,27.4560565365414
NORTHERN AMERICA,Nunavut,Angilaaq Mountain,1944,1036,640,73.2298,-78.623,-79.2364241986382,73.4030491752508,-79.2364241986382,73.4030491752508
NORTHERN AMERICA,Nunavut,Devon Ice Cap High Point,1920,261,0,75.3429,-82.6186,-83.3104173705705,75.5136735197234,-83.3104173705705,75.5136735197234
NORTHERN AMERICA,New Hampshire,Mount Washington,1917,1571,1270,44.2705,-71.3032666666667,-71.5651832426722,44.4583329369634,-71.2794088779717,44.2651428189302
NORTHERN AMERICA,North Carolina,Waterrock Knob,1917,1268,1009,35.4641666666667,-83.1377777777778,-83.3582226373737,35.6445424569259,-83.3582226373737,35.6445424569259
NORTHERN AMERICA,North Carolina,Roan High Knob,1915,1186,966,36.1044444444444,-82.1222222222222,-82.3442254057882,36.2827238576667,-82.1632565062217,36.1026800644892
NORTHERN AMERICA,Greenland,Peary Land High Point,1910,0,0,83.3167,-35.3333,-36.8509932853567,83.487028309861,-36.8509932853567,83.487028309861
NORTHERN AMERICA,Nunavut,Kisimngiuqtuq Peak,1905,1905,1801,70.7993,-71.6502,-72.1768875560712,70.9695189173612,-72.1768875560712,70.9695189173612
NORTHERN AMERICA,Nunavut,Qiajivik Mountain,1905,1905,1777,72.1809,-75.909,-76.4754198119463,72.3510312405678,-75.8776176822445,72.1345215706256
NORTHERN AMERICA,North Carolina,Mount Kephart,1895,1541,1181,35.6308333333333,-83.3897222222222,-83.6081856639823,35.8086837625766,-83.4145175201809,35.6669273232091
SOUTHERN AMERICA,Panama,Cerro Tacarcuna,1875,1463,1104,8.1659,-77.2959,-77.467436908271,8.33634745809511,-77.467436908271,8.33634745809511
NORTHERN AMERICA,Baja California,Cerro La Sandía,1810,1586,1136,28.4073,-113.4387,-113.411391520999,28.4449688208205,-113.625998183873,28.5711659511006
NORTHERN AMERICA,Aleutian Is.,Tanaga Volcano,1806,1806,1806,51.8838,-178.1429,-178.407956871988,52.0458611448428,-178.407956871988,52.0458611448428
NORTHERN AMERICA,Aleutian Is.,Makushin Volcano,1800,1807,1459,53.8782,-166.9299,-167.206871688448,54.0405448517214,-167.206871688448,54.0405448517214
NORTHERN AMERICA,California,Junipero Serra Peak,1788,1566,1137,36.1457,-121.4191,-121.623924291361,36.3109412601648,-121.623924291361,36.3109412601648
NORTHERN AMERICA,Alaska,Frosty Peak,1769,1769,1540,55.0672,-162.8351,-163.116796105888,55.2269913407448,-162.857396603267,55.0521518761205
NORTHERN AMERICA,New Hampshire,Mount Adams,1767,1475,1172,44.3205555555556,-71.2916666666667,-71.5348878110643,44.4949291425621,-71.5348878110643,44.4949291425621
PACIFIC,Hawaiian Is.,Puʻu Kukui,1764,1764,1429,20.8904,-156.5863,-156.758378964069,21.0516718978242,-156.758378964069,21.0516718978242
NORTHERN AMERICA,Alaska,Chunekukleik Mountain,1762,1740,1638,59.2919,-135.9529,-136.265916786511,59.4508151030759,-135.926657851523,59.3030732776227
SOUTHERN AMERICA,Nicaragua,Volcán San Cristóbal,1745,1720,1392,12.7026,-87.0057,-86.9880654482068,12.7470275205682,-87.1677058556236,12.8599694376313
NORTHERN AMERICA,Greenland,Hahn Land High Point,1744,0,0,80.4333,-19.8333,-20.7950864294801,80.5881373158795,-20.7950864294801,80.5881373158795
NORTHERN AMERICA,Virginia,Mount Rogers,1741,1000,646,36.6601,-81.5449,-81.7412032255115,36.817500585856,-81.5506608803136,36.6689760171311
NORTHERN AMERICA,Aleutian Is.,Great Sitkin Volcano,1740,1740,1740,52.0763,-176.1108,-176.367310181221,52.2330727364532,-176.367310181221,52.2330727364532
NORTHERN AMERICA,Greenland,Point 1740,1740,0,0,63.6667,-50.2167,-50.5726034736501,63.8230269424152,-50.5726034736501,63.8230269424152
NORTHERN AMERICA,Greenland,Azimuthbjerg,1738,0,0,63.4552,-41.8508,-42.2036557791717,63.6117160375849,-42.2036557791717,63.6117160375849
NORTHERN AMERICA,California,Santiago Peak,1734,1470,1276,33.7105,-117.5342,-117.513314782015,33.7549907528591,-117.732155206829,33.8742915391112
NORTHERN AMERICA,Aleutian Is.,Mount Cleveland,1730,1730,1730,52.823,-169.9465,-170.205913245233,52.9784005885271,-170.205913245233,52.9784005885271
NORTHERN AMERICA,Yukon,Manuel Peak,1722,1070,890,67.9833,-136.5833,-137.000500991328,68.1365817808805,-136.585569180312,67.9757239160337
NORTHERN AMERICA,Nunavut,McBeth-Inugsuin Peak,1721,1549,1029,69.6524,-69.3059,-69.7556738827039,69.8056940181071,-69.7556738827039,69.8056940181071
SOUTHERN AMERICA,Galápagos,Volcán Wolf,1707,1707,1606,0.0419444444444444,-91.3344444444444,-91.4929530435335,0.20115842118739,-91.4929530435335,0.20115842118739
NORTHERN AMERICA,Veracruz,Sierra de Santa Martha,1690,1570,1171,18.3455,-94.8576,-95.0192893303557,18.4983430000711,-95.0192893303557,18.4983430000711
NORTHERN AMERICA,Baja California Sur,Cerro Giganta,1690,1578,1401,26.1064,-111.5844,-111.757031566121,26.2620413978974,-111.757031566121,26.2620413978974
NORTHERN AMERICA,Tennessee,Thunderhead Mountain,1684,1309,945,35.5686111111111,-83.7063888888889,-83.8965430330996,35.7220865948622,-83.7114092218177,35.5870425288429
NORTHERN AMERICA,Alaska,Mount Tozi,1682,1229,1060,65.6865,-150.9498,-151.309626755713,65.8323065696555,-150.915984177534,65.6735369317127
NORTHERN AMERICA,North Carolina,Big Bald,1681,1113,859,35.9897222222222,-82.4902777777778,-82.6859008178444,36.1485847436905,-82.4969883701212,36.0068004144722
NORTHERN AMERICA,Greenland,J.A.D. Jensen Nunatakker,1668,0,0,62.792,-48.8483,-49.179274534282,62.9413986403023,-49.179274534282,62.9413986403023
NORTHERN AMERICA,Wyoming,Panorama Point,1656,42,0,41.0077,-104.0314,-104.026466441758,41.0136879605145,-104.133570440277,41.0856795234213
NORTHERN AMERICA,Labrador,Mount Caubvick,1652,1614,1214,58.8877851851852,-63.7097481481482,-63.9996579199158,59.0365270641376,-63.7859995971044,58.9021711536652
NORTHERN AMERICA,Alaska,Veniaminof Peak,1643,1643,1476,57.0151,-134.9882,-135.261968732183,57.1623850786486,-135.261968732183,57.1623850786486
NORTHERN AMERICA,Washington,Round Mountain,1629,1549,1478,48.3265,-121.7507,-121.973377003693,48.4727361966282,-121.743487701986,48.3088283541259
NORTHERN AMERICA,New York,Mount Marcy,1629,1121,760,44.1127666666667,-73.9237333333333,-74.1487507983038,44.272604531349,-73.8858299017892,44.0995757768364
AUSTRALASIA,Tasmania,Mount Ossa,1617,1232,986,-41.8708333333333,146.033333333333,145.836538621056,-41.7232348357719,146.01676748799,-41.8832116193175
NORTHERN AMERICA,Alaska,Mount Prindle,1611,917,773,65.461,-146.4758,-146.808082093552,65.5967359735266,-146.808082093552,65.5967359735266
NORTHERN AMERICA,Aleutian Is.,Mount Carlisle,1610,1610,1610,52.8913,-170.058,-170.299864818028,53.0350541983747,-170.299864818028,53.0350541983747
NORTHERN AMERICA,Maine,Katahdin,1606,1434,1188,45.9044,-68.9213333333333,-69.1338218571943,46.0508962251159,-69.1338218571943,46.0508962251159
NORTHERN AMERICA,Alaska,Kuskokwim High Point,1600,1477,1302,60.1159,-159.3241,-159.615369800059,60.2603102160085,-159.615369800059,60.2603102160085
PACIFIC,Hawaiian Is.,Kawaikini,1598,1483,1284,22.0586,-159.4973,-159.654649204717,22.2032436455274,-159.654649204717,22.2032436455274
NORTHERN AMERICA,New Hampshire,Mount Lafayette,1598,1310,1069,44.1605555555556,-71.6444444444444,-71.8657520755002,44.3186893751774,-71.6651302247474,44.1479091569479
NORTHERN AMERICA,Yukon,Cap Mountain,1577,1319,1053,63.4063,-123.2061,-123.513658665816,63.5423766645664,-123.227000341711,63.3879523915656
NORTHERN AMERICA,Tennessee,Unaka Mountain,1576,1056,791,36.1338888888889,-82.2969444444444,-82.481212604106,36.2819508913231,-82.2975556338325,36.1536704882798
NORTHERN AMERICA,Aleutian Is.,Gareloi Volcano,1573,1573,1573,51.788,-178.794,-179.024491937238,51.9283861699567,-179.024491937238,51.9283861699567
NORTHERN AMERICA,New York,Algonquin Peak,1559,1029,871,44.1436111111111,-73.9866666666667,-74.2030114890427,44.2985150424628,-73.99310436939,44.1547255221012
SOUTHERN AMERICA,Panama,Cerro Hoya,1559,1534,1175,7.3179,-80.681,-80.8234571780876,7.45825765065871,-80.8234571780876,7.45825765065871
NORTHERN AMERICA,Aleutian Is.,Korovin Volcano,1533,1533,1533,52.3816,-174.1653,-174.392976816764,52.5188332320095,-174.392976816764,52.5188332320095
NORTHERN AMERICA,Alaska,Black Mountain,1530,1081,911,68.5598,-160.3281,-160.70839465745,68.6967627547126,-160.338509470107,68.5492656437071
NORTHERN AMERICA,Oklahoma,Black Mesa,1516,199,161,36.9318,-102.9979,-102.998741753241,36.9243659691303,-102.990323775663,36.928871198885
PACIFIC,Hawaiian Is.,Kamakou,1512,1512,1380,21.1065,-156.8682,-157.016225415836,21.2453908373111,-157.016225415836,21.2453908373111
NORTHERN AMERICA,North Carolina,Gregory Bald,1509,1168,797,35.5205555555556,-83.8652777777778,-84.0359545525656,35.6582887892448,-83.8978519861057,35.5119436919335
NORTHERN AMERICA,New Hampshire,South Twin,1493,1109,779,44.1877777777778,-71.5544444444444,-71.7626483956296,44.3351360226708,-71.5713865242608,44.1688323104361
NORTHERN AMERICA,West Virginia,Spruce Knob,1482,932,648,38.69985,-79.5329,-79.4897211648162,38.7224075996509,-79.518473696338,38.6976420927806
NORTHERN AMERICA,New York,Whiteface Mountain,1482,1223,1122,44.3658333333333,-73.9030555555556,-74.1105124957114,44.5141781928478,-73.8779043223449,44.3613758989889
NORTHERN AMERICA,New York,Dix Mountain,1481,1187,787,44.0825,-73.7866666666667,-73.993000965116,44.2309443193619,-73.7958422515951,44.0758847875736
NORTHERN AMERICA,Alaska,Kootznoowoo Peak,1478,1477,1392,57.7891,-134.4546,-134.706281796882,57.922050244555,-134.478381107677,57.7763928115819
NORTHERN AMERICA,New Hampshire,Carter Dome,1475,1161,824,44.2675,-71.1791666666667,-71.3853910557967,44.4142297851331,-71.1970248481841,44.3041714027483
SOUTHERN AMERICA,Guadeloupe,La Grande Soufrière,1467,1467,1046,16.04495,-61.6638444444444,-61.802661052336,16.1773382520499,-61.6437058523065,16.0486089330038
NORTHERN AMERICA,New Hampshire,Mount Moosilauke,1463,1220,881,44.0233333333333,-71.8313888888889,-72.0352561899956,44.1689037128917,-71.810242153865,44.0385861426254
NORTHERN AMERICA,Georgia,Brasstown Bald,1458,895,753,34.8744,-83.8111,-83.8269084239108,34.8929227566207,-83.8187023234601,34.8816560373756
NORTHERN AMERICA,West Virginia,Mount Porte Crayon,1454,871,594,38.9288888888889,-79.4561111111111,-79.6319089246816,39.0641890542605,-79.4124694706133,38.9156842238623
NORTHERN AMERICA,Alaska,Mount Angayukaqsraq,1448,1148,850,67.7083,-159.4053,-159.752085000045,67.8369991488258,-159.437280666684,67.6961478454026
SOUTHERN AMERICA,Dominica,Morne Diablotins,1447,1447,1446,15.5038888888889,-61.3980555555556,-61.5346358797669,15.6358346186546,-61.5346358797669,15.6358346186546
NORTHERN AMERICA,Alaska,Mount Osborn,1437,1427,1159,64.9922,-165.3294,-165.638065481871,65.1219803960508,-165.638065481871,65.1219803960508
NORTHERN AMERICA,Nebraska,South Bluff,1435,206,166,41.8208333333333,-103.714722222222,-103.817091496207,41.8973609373559,-103.711652884074,41.8231291395582
NORTHERN AMERICA,New Hampshire,Mount Carrigain,1426,1191,821,44.0936111111111,-71.4469444444445,-71.6464109867066,44.2357675620906,-71.4336461164785,44.0896954378448
NORTHERN AMERICA,New York,Giant Mountain,1411,1245,1028,44.1611111111111,-73.7202777777778,-73.9180899428325,44.3023687758095,-73.9180899428325,44.3023687758095
NORTHERN AMERICA,Alaska,Mount Reid,1400,1398,1199,55.7065,-131.2472,-131.474539906843,55.8343247954228,-131.474539906843,55.8343247954228
SOUTHERN AMERICA,Martinique,Montagne Pelée,1395,1395,1247,14.8091666666667,-61.1655555555556,-61.2964775687578,14.9348895149698,-61.2964775687578,14.9348895149698
NORTHERN AMERICA,Saskatchewan,Saskatchewan High Point,1392,147,0,49.5511111111111,-109.987222222222,-110.103559171189,49.6283314051699,-110.103559171189,49.6283314051699
NORTHERN AMERICA,Alaska,Koniag Peak,1378,1378,1212,57.3548,-153.3235,-153.55578913139,57.4786358890563,-153.55578913139,57.4786358890563
EUROPE,Great Britain,Ben Nevis,1345,1345,1326,56.7969444444444,-5.00361111111111,-5.22765098690819,56.9189187471311,-5.22765098690819,56.9189187471311
NORTHERN AMERICA,Vermont,Mount Mansfield,1340,1197,1060,44.5438,-72.8144,-73.0045309854937,44.6779519685783,-73.0045309854937,44.6779519685783
SOUTHERN AMERICA,Puerto Rico,Cerro de Punta,1338,1194,935,18.1722,-66.5917,-66.7198112216598,18.2937209304228,-66.5826745126944,18.1559821836683
NORTHERN AMERICA,California,Copernicus Peak,1336,1018,739,37.3468,-121.63,-121.786852341132,37.471713244754,-121.642697634991,37.3524307455367
SOUTHERN AMERICA,Bolivia,Serrania de Santiago,1320,983,913,-18.1197222222222,-60.0202777777778,-60.1367551639463,-18.0075182080978,-60.0305307142226,-18.1363009888533
NORTHERN AMERICA,Aleutian Is.,Herbert Volcano,1311,1311,1311,52.7405,-170.1142,-170.310686052161,52.8572927959093,-170.310686052161,52.8572927959093
NORTHERN AMERICA,Guadalupe I.,Isla Guadalupe High Point,1310,1310,1310,29.1016,-118.3132,-118.449213536783,29.2190449413913,-118.449213536783,29.2190449413913
EUROPE,Great Britain,Ben Macdui,1309,950,749,57.0699888888889,-3.66906388888889,-3.69456349693192,57.1122361052415,-3.89724059747415,57.1928492160046
NORTHERN AMERICA,Aleutian Is.,Mount Kanaga,1307,1307,1307,51.9238,-177.1623,-177.354603791198,52.0409741915612,-177.354603791198,52.0409741915612
NORTHERN AMERICA,Aleutian Is.,Mount Akutan,1296,1296,1240,54.133,-165.9854,-166.186445070057,54.2486822100959,-166.186445070057,54.2486822100959
NORTHERN AMERICA,Maine,Sugarloaf Mountain,1295,1065,779,45.0317333333333,-70.3132666666667,-70.4992812322175,45.1631810773621,-70.4992812322175,45.1631810773621
NORTHERN AMERICA,Vermont,Killington Peak,1289,1082,544,43.6047222222222,-72.8202777777778,-73.0010676036328,43.7345014044005,-72.811792233006,43.6131373963812
NORTHERN AMERICA,Virginia,Apple Orchard Mountain,1287,1063,857,37.5172222222222,-79.5111111111111,-79.6645742584583,37.6383519663742,-79.6645742584583,37.6383519663742
NORTHERN AMERICA,Québec,Mont Jacques-Cartier,1276,803,533,48.9875611111111,-65.9481777777778,-65.9843367716886,49.0154756778424,-65.9262353209422,49.0177272449493
NORTHERN AMERICA,New York,Slide Mountain,1275,1102,728,41.9991833333333,-74.3858666666667,-74.3281208089247,41.9904808910329,-74.3794084142934,42.0085013133928
NORTHERN AMERICA,Kentucky,Black Mountain,1262,742,502,36.9142,-82.8938,-83.0271339243622,37.0212198981485,-82.931564459634,36.9199159689833
SOUTHERN AMERICA,Cuba,Gran Piedra,1249,1249,1049,20.0115,-75.627,-75.7481216275256,20.1251392493282,-75.7481216275256,20.1251392493282
NORTHERN AMERICA,Virginia,The Priest,1240,1042,929,37.8197222222222,-79.0622222222222,-79.2109558535078,37.9360765008235,-79.0403597719787,37.8167920824617
PACIFIC,Hawaiian Is.,Kaʻala,1237,1237,1098,21.5079,-158.1426,-158.262027782956,21.6197118735752,-158.150947027043,21.4865402785426
SOUTHERN AMERICA,St.Vincent,La Soufrière,1234,1234,1234,13.3477388888889,-61.1761055555556,-61.288912673928,13.4587558129882,-61.288912673928,13.4587558129882
NORTHERN AMERICA,Virginia,Hawksbill,1234,1034,728,38.5552777777778,-78.3952777777778,-78.5448326348078,38.6721563041776,-78.412661072182,38.566401899207
NORTHERN AMERICA,Colorado,Mount Sunflower,1232,40,0,39.022,-102.0371,-102.117253008011,39.0856118099799,-102.117253008011,39.0856118099799
SOUTHERN AMERICA,Surinam,Julianatop,1230,1081,909,3.68277777777778,-56.5355555555556,-56.6550681552108,3.80236750560385,-56.5312798313812,3.67350835954421
NORTHERN AMERICA,Alaska,Peak 4030,1228,847,618,64.4535,-159.4152,-159.668730196992,64.5640149149672,-159.42881071696,64.4610789076587
NORTHERN AMERICA,Aleutian Is.,Anvil Peak,1221,1221,1221,51.9859,179.6021,179.425760270476,52.0950992376544,179.425760270476,52.0950992376544
NORTHERN AMERICA,Aleutian Is.,Kiska Volcano,1220,1220,1220,52.1027,177.603,177.426344129097,52.2119865945622,177.426344129097,52.2119865945622
EUROPE,Great Britain,Ben Lawers,1214,1108,1023,56.5455555555556,-4.22083333333333,-4.41885623300335,56.6563524490543,-4.19475059199867,56.5307797952754
NORTHERN AMERICA,Baja California,Isla Cedros High Point,1200,1200,1155,28.1301,-115.2206,-115.342613860324,28.2385530037426,-115.342613860324,28.2385530037426
NORTHERN AMERICA,Labrador,Mealy Mountains High Point,1190,740,574,53.6465,-58.5536,-58.5085892497056,53.6687290402132,-58.5690889821797,53.6170735328798
EUROPE,Great Britain,Càrn Eige,1183,1097,915,57.2876583333333,-5.11607777777778,-5.31191372677289,57.3950350212674,-5.13307944352685,57.2964121728537
NORTHERN AMERICA,Québec,Mont Raoul-Blanchard,1175,736,509,47.3097222222222,-70.8317111111111,-71.0096562566529,47.4294377095905,-71.0096562566529,47.4294377095905
SOUTHERN AMERICA,Belize,Doyle's Delight,1174,696,322,16.4941333333333,-89.0455777777778,-89.0238026469066,16.4835144475315,-89.0401922810107,16.4925518850772
NORTHERN AMERICA,British Columbia,Mount Moresby,1164,1164,1164,53.0191,-132.0856,-132.25790709744,53.1242436482576,-132.25790709744,53.1242436482576
SOUTHERN AMERICA,St.Kitts-Nevis,Mount Liamuiga,1156,1156,1126,17.3684166666667,-62.8029777777778,-62.9111069241263,17.4724320655249,-62.7887213299608,17.382105078569
NORTHERN AMERICA,Chiapas,Tabasco High Point,1140,1112,1008,17.4105555555556,-92.8394444444444,-92.9462795475232,17.5135772437903,-92.9462795475232,17.5135772437903
SOUTHERN AMERICA,Cuba,Pico San Juan,1140,1029,470,21.9853,-80.1327,-80.1599504858562,21.9463290174192,-80.1575385998918,21.9937420700196
NORTHERN AMERICA,Québec,Mont Yapeitso,1135,451,408,52.3223,-70.4451,-70.5939008127995,52.4131981128727,-70.4432664854208,52.3279167735015
SOUTHERN AMERICA,Rondônia,Pico do Tracuá,1126,764,501,-10.8316666666667,-63.5769444444445,-63.6744446089453,-10.7336974002446,-63.5693086553262,-10.8195975066711
NORTHERN AMERICA,Québec,Mont Veyrier,1104,362,310,51.5309,-68.0763,-68.2339350301875,51.6304267369445,-68.2339350301875,51.6304267369445
EUROPE,Great Britain,Snowdon,1085,1082,1025,53.0684972222222,-4.07623055555556,-4.24528634690165,53.1712185799444,-4.24528634690165,53.1712185799444
NORTHERN AMERICA,South Carolina,Sassafras Mountain,1083,693,369,35.0651,-82.7773,-82.9021602521153,35.1675665648308,-82.9021602521153,35.1675665648308
NORTHERN AMERICA,Tennessee,Cross Mountain,1077,815,732,36.1983333333333,-84.2305555555556,-84.3408151841152,36.2892587203438,-84.2183809823971,36.1946828313828
NORTHERN AMERICA,North Dakota,White Butte,1069,120,0,46.387,-103.3027,-103.296654660407,46.3889340047643,-103.384493489378,46.4451305984354
NORTHERN AMERICA,Massachusetts,Mount Greylock,1063,862,742,42.6373,-73.1659,-73.141815081064,42.6505754984406,-73.1540133999262,42.6325732961965
NORTHERN AMERICA,Revillagigedo Is.,Volcán Everman,1050,1015,740,18.8,-110.9833,-111.081773007332,18.8937042450933,-110.982114368967,18.7808021514095
NORTHERN AMERICA,Greenland,Haffner Bjerg,1050,0,0,76.3426,-62.3453,-62.7414105843712,76.4352276872653,-62.7414105843712,76.4352276872653
NORTHERN AMERICA,Labrador,Man O'War Peak,1050,1050,702,56.9686,-61.6692,-61.8402022704722,57.0616499144963,-61.6465887978984,56.9764554031269
EUROPE,Ireland,Carrauntoohil,1039,1037,965,51.9994444444444,-9.74277777777778,-9.89605785759922,52.0936668597815,-9.72101635359398,51.9859164411271
NORTHERN AMERICA,Maryland,Hoye-Crest,1027,296,222,39.2374,-79.4855,-79.5022364826469,39.2356423549308,-79.6095474511114,39.3346583419245
NORTHERN AMERICA,Tennessee,Frozen Head,1013,619,566,36.1225,-84.4577777777778,-84.4650516161251,36.1008255076439,-84.4511691145359,36.1143438060524
NORTHERN AMERICA,Alaska,Blackburn Hills,1004,938,816,63.4107,-159.6559,-159.854986771193,63.5010357378259,-159.854986771193,63.5010357378259
NORTHERN AMERICA,North Dakota,Kildeer Mountain,1000,144,0,47.4436111111111,-102.943055555556,-103.026074777267,47.4997513577493,-103.026074777267,47.4997513577493
NORTHERN AMERICA,South Carolina,Hogback Mountain,982,692,622,35.17,-82.2905555555556,-82.2671223834185,35.159947583467,-82.2863299015076,35.1599497665179
NORTHERN AMERICA,Pennsylvania,Mount Davis,979,269,267,39.786,-79.1768,-79.2962107374029,39.87857039379,-79.2962107374029,39.87857039379
EUROPE,Great Britain,Scafell Pike,978,930,906,54.4541666666667,-3.21166666666667,-3.36982337747731,54.5462800688716,-3.24226950896688,54.4520516425125
PACIFIC,Northern Marianas,Mount Agrihan,977,977,975,18.7681,145.6732,145.581675557587,18.8571103208865,145.683679831776,18.762272571557
SOUTHERN AMERICA,St.Lucia,Mount Gimie,950,949,783,13.8636111111111,-61.0116666666667,-61.0985179893596,13.9482408933795,-61.0985179893596,13.9482408933795
SOUTHERN AMERICA,Trinidad-Tobago,Aripo Peak,940,928,787,10.7230777777778,-61.24745,-61.3330863306311,10.8079114219676,-61.3330863306311,10.8079114219676
NORTHERN AMERICA,Québec,Mont Tremblant,932,717,386,46.2488888888889,-74.5594444444444,-74.684977994915,46.3372987841229,-74.5323999880287,46.2631448973082
SOUTHERN AMERICA,Montserrat,Soufriere Hills Volcano,914,914,888,16.7122222222222,-62.1755555555556,-62.2605923458586,16.7952018960168,-62.2605923458586,16.7952018960168
NORTHERN AMERICA,Alaska,Kusilvak High Point,885,700,636,62.9285,-161.7461,-161.918324947001,63.0071224076158,-161.918324947001,63.0071224076158
NORTHERN AMERICA,Maryland,Dans Mountain,882,684,536,39.5816666666667,-78.8975,-79.0052382127179,39.6649748269358,-78.8858028234598,39.5772076808413
NORTHERN AMERICA,Yukon,Melville Hills High Point,876,134,0,69.2425,-121.5391,-121.758103018308,69.3195898100095,-121.758103018308,69.3195898100095
NA,NA,Mount Scenery,870,870,870,17.6347222222222,-63.2377777777778,-63.3190879407081,17.7126352658095,-63.3190879407081,17.7126352658095
SOUTHERN AMERICA,French Guiana,Bellevue de L'Inini,851,703,313,3.54388888888889,-53.5747222222222,-53.6519059015715,3.62233664862805,-53.5708971747806,3.52964560237506
SOUTHERN AMERICA,Paraguay,Cerro Tres Kandú,842,689,647,-25.9019444444444,-56.16,-56.2382459413339,-25.8305696565691,-56.2382459413339,-25.8305696565691
SOUTHERN AMERICA,Grenada,Mount Saint Catherine,840,839,685,12.1622611111111,-61.675,-61.7518797818816,12.2380478685854,-61.685244889464,12.1680010966589
NORTHERN AMERICA,Arkansas,Signal Hill,839,719,582,35.1671,-93.6447,-93.6376220701862,35.1436193530445,-93.7337459655865,35.2404826911884
NORTHERN AMERICA,Manitoba,Baldy Mountain,831,107,0,51.47,-100.72,-100.807245834974,51.5256491859973,-100.807245834974,51.5256491859973
NORTHERN AMERICA,New Brunswick,Mount Carleton,820,570,326,47.3780277777778,-66.8761055555555,-66.9833149906637,47.4514180837289,-66.9037180237958,47.3840058438765
NORTHERN AMERICA,Oklahoma,Rich Mountain,815,556,483,34.6877777777778,-94.5602777777778,-94.5681918890406,34.7105385779754,-94.5545478004043,34.697017283695
NORTHERN AMERICA,Greenland,Point 813,813,0,0,76.4035,-68.7271,-69.0336048177034,76.4749329476855,-69.0336048177034,76.4749329476855
NORTHERN AMERICA,Newfoundland,The Cabox,812,774,451,48.8331,-58.4843,-58.518298139297,48.8533725592248,-58.4876386441636,48.8556255703146
NORTHERN AMERICA,Oklahoma,Sugar Loaf Mountain,780,629,574,35.0263888888889,-94.4686111111111,-94.5521249879353,35.0951802695159,-94.4753493599681,35.0163383039588
NORTHERN AMERICA,North Dakota,Boundary Butte,774,72,0,48.9994444444444,-100.43,-100.501200977569,49.0470351205504,-100.501200977569,49.0470351205504
NORTHERN AMERICA,Northwest Territories,Melville Island High Point,762,236,217,75.3694,-115.0827,-115.34961841677,75.4364844137023,-115.047080206668,75.3649626812856
NORTHERN AMERICA,Pennsylvania,Tuscarora Mountain,750,572,502,39.9502777777778,-77.9369444444444,-78.0297806984295,40.0229660545533,-77.9243659483597,39.9441978517164
NORTHERN AMERICA,New York,Mount Frissell,747,575,440,42.0504944444444,-73.4823722222222,-73.5087716461997,42.0645810712592,-73.5783318261388,42.1230631785266
NORTHERN AMERICA,Alabama,Cheaha Mountain,733,460,337,33.4854,-85.8086,-85.8242580776613,33.4993288125763,-85.816186511077,33.4948215407505
NORTHERN AMERICA,Northwest Territories,Durham Heights,724,709,290,71.1358,-122.9531,-123.150831313593,71.1996431658725,-122.983962877205,71.1213230106191
ANTARCTIC,Falkland Is.,Mount Usborne,705,666,579,-51.6919444444444,-58.8338888888889,-58.9338957505832,-51.6283126896864,-58.8255752118437,-51.6822822179608
NORTHERN AMERICA,Minnesota,Eagle Mountain,702,153,0,47.8974,-90.5606,-90.5621377540814,47.8896203876626,-90.6290676892882,47.9435624019749
NORTHERN AMERICA,Ontario,Ishpatina Ridge,693,317,186,47.3169444444444,-80.7488888888889,-80.8311800518245,47.3734462335422,-80.7616537408161,47.3217558756423
NORTHERN AMERICA,Alaska,Tooth Benchmark,673,404,211,63.592,-170.3804,-170.352287563258,63.60451170917,-170.513726117232,63.6515500284593
NORTHERN AMERICA,Pennsylvania,Shade Mountain - Snyder County High Point,667,476,234,40.6988888888889,-77.2216666666667,-77.2173466301387,40.7201858460407,-77.3061685153623,40.7629291216355
NORTHERN AMERICA,Aleutian Is.,Buldir Volcano,656,656,656,52.3482,175.9105,175.815941699805,52.4071605722508,175.815941699805,52.4071605722508
NORTHERN AMERICA,Northwest Territories,Victoria Island High Point,655,197,0,71.8528,-112.6073,-112.626707888916,71.8512307083948,-112.792630273061,71.9116353357106
NORTHERN AMERICA,Maryland,Quirauk Mountain,652,452,194,39.6966666666667,-77.5125,-77.5298148010652,39.7013038080789,-77.5239841563818,39.6968011941251
NORTHERN AMERICA,Ontario,Kwagama Hill,642,324,156,47.4147222222222,-84.5588888888889,-84.6423962015081,47.4727512289755,-84.5495481332302,47.4075711993557
NORTHERN AMERICA,Nunavut,Mathiassen Mountain,625,184,180,64.7403,-83.1573,-83.2861484935113,64.7951823236231,-83.2861484935113,64.7951823236231
NORTHERN AMERICA,Michigan,Mount Arvon,603,146,0,46.7557,-88.1553,-88.1507837754135,46.7633011424817,-88.2326637498889,46.8082527264017
NORTHERN AMERICA,Michigan,Mount Curwood,603,102,0,46.7030555555556,-88.2394444444444,-88.3167328219114,46.7556088156526,-88.3167328219114,46.7556088156526
SOUTHERN AMERICA,Netherlands Leeward Is.,Mazinga,600,605,600,17.4763888888889,-62.9597222222222,-63.0155229951698,17.5312716530604,-63.0155229951698,17.5312716530604
NORTHERN AMERICA,Wisconsin,Timms Hill,595,46,0,45.4508,-90.1954,-90.2507273350896,45.4906009624449,-90.2507273350896,45.4906009624449
NORTHERN AMERICA,Michigan,Summit Peak,595,152,0,46.7472222222222,-89.7716666666667,-89.7693768229553,46.7398008511189,-89.8283079293496,46.7870134994561
NORTHERN AMERICA,Wisconsin,Rib Mountain,586,226,0,44.9208333333333,-89.695,-89.6894897528084,44.9292467428869,-89.7496889695438,44.9607282945396
NORTHERN AMERICA,Greenland,Point 574,574,0,0,82,-59.1667,-59.5302105758653,82.0503022365564,-59.5302105758653,82.0503022365564
NORTHERN AMERICA,Wisconsin,Mount Whittlesey,571,164,0,46.3008333333333,-90.6175,-90.6669202773869,46.3363128712034,-90.6669202773869,46.3363128712034
NORTHERN AMERICA,Ontario,Sleeping Giant,563,384,384,48.3508333333333,-88.8975,-88.9718452843039,48.4002259454952,-88.9043137545708,48.3530364222377
NORTHERN AMERICA,New Jersey,High Point,549,373,198,41.3209,-74.6616,-74.6730087040098,41.3348108004083,-74.6550899450355,41.328058091789
NORTHERN AMERICA,Missouri,Taum Sauk Mountain,540,165,0,37.5713,-90.7291,-90.7904375815979,37.6216045244287,-90.7904375815979,37.6216045244287
NORTHERN AMERICA,Ontario,Silver Peak,539,337,192,46.1111111111111,-81.2894444444444,-81.3484095301042,46.1533347081121,-81.2804552527666,46.1061176569176
NORTHERN AMERICA,Nova Scotia,White Hill,535,131,0,46.7040166666667,-60.5987555555556,-60.6673999291035,46.7512680246463,-60.6673999291035,46.7512680246463
NORTHERN AMERICA,Wisconsin,Blue Mounds,524,232,0,43.0280555555556,-89.8525,-89.9036323619099,43.0648149693069,-89.9036323619099,43.0648149693069
SOUTHERN AMERICA,British Virgin Is.,Mount Sage,521,521,521,18.4094722222222,-64.6555777777778,-64.7041909996786,18.4556781074469,-64.7041909996786,18.4556781074469
NORTHERN AMERICA,Michigan,Grove Hill,521,55,0,44.1375,-85.3447222222222,-85.3950520419756,44.1732626243147,-85.3950520419756,44.1732626243147
NORTHERN AMERICA,Michigan,Briar Hill,519,143,0,44.3661111111111,-85.6794444444444,-85.6795071803168,44.3750654325688,-85.7297189482721,44.4020523056649
NORTHERN AMERICA,Minnesota,Moose Mountain,515,336,197,47.6511111111111,-90.735,-90.778084480294,47.680468838958,-90.734800363565,47.6445004125384
SOUTHERN AMERICA,Uruguay,Cerro Catedral,514,337,163,-34.3830555555556,-54.6738888888889,-54.6636121443609,-34.394819353648,-54.6826422158241,-34.3858047321199
NORTHERN AMERICA,Iowa,Hawkeye Point,509,18,0,43.4602,-95.7089,-95.7101972566626,43.4525043314531,-95.7472844799211,43.488500910867
NA,NA,Hall Island High Point,507,507,507,60.6647,-173.0887,-173.179267735984,60.7100367761345,-173.179267735984,60.7100367761345
NORTHERN AMERICA,Ontario,Peak 489,489,275,221,46.0666666666667,-81.3833333333333,-81.4357793880386,46.1043954652171,-81.3872753836743,46.0661717794532
NORTHERN AMERICA,Minnesota,Murphy Mountain,488,228,0,47.7575,-90.4336111111111,-90.4299438083102,47.7487308109509,-90.4733119947145,47.7846998560432
NORTHERN AMERICA,Wisconsin,Sauk Point,486,212,0,43.4277777777778,-89.6541666666667,-89.6515118677446,43.4184618935459,-89.7009363506358,43.4612061797854
NORTHERN AMERICA,Michigan,Cuyahoga Peak,485,306,160,46.8136111111111,-89.7130555555556,-89.7553348612401,46.8430633862325,-89.7225554558221,46.8160844647562
NORTHERN AMERICA,Iowa,Carroll County High Point,475,26,0,41.9925,-95.0733333333333,-95.0754451906677,41.988673665916,-95.105629354413,42.0179291114425
NORTHERN AMERICA,Kansas,Pottawatomie County High Point,475,29,0,39.5063888888889,-96.3875,-96.3943015933468,39.5033713489249,-96.4175665335699,39.5303885342538
SOUTHERN AMERICA,Virgin Is.,Crown Mountain,474,474,466,18.3571,-64.9732,-65.01734970407,18.4007775326609,-64.9771263998882,18.34883320228
NORTHERN AMERICA,Ohio,Campbell Hill,472,49,0,40.3703,-83.7201,-83.7146253435848,40.3654818551293,-83.7617413048876,40.4014969309531
NORTHERN AMERICA,Maine,Cadillac Mountain,466,464,360,44.3513888888889,-68.2266666666667,-68.2865985963466,44.3938950247836,-68.2332510050993,44.3489138723944
NORTHERN AMERICA,New Jersey,Mount Tammany,464,377,371,40.9697222222222,-75.1105555555555,-75.1712463744733,41.0160352412131,-75.1147729660399,40.9687766471826
NORTHERN AMERICA,Michigan,Huron Mountain,460,267,197,46.8783333333333,-87.9216666666667,-87.9804161448406,46.9190221703703,-87.9278984800574,46.8830557206629
NORTHERN AMERICA,Missouri,Black Mountain,458,288,165,37.4691666666667,-90.4961111111111,-90.4887075341687,37.4615528816312,-90.4971849445175,37.4638056370446
NORTHERN AMERICA,Ontario,Pie Island High Point,455,276,250,48.2352777777778,-89.1608333333333,-89.2204486357564,48.2764062194469,-89.1665545858333,48.2359521236237
NORTHERN AMERICA,Michigan,Mount Bohemia,447,268,233,47.3916666666667,-88.0136111111111,-88.0712051067666,47.4312731046472,-88.0082470749807,47.3885634183766
NORTHERN AMERICA,Wisconsin,Devil's Lake West Bluff,447,158,155,43.4202777777778,-89.7386111111111,-89.7373143788369,43.4279734657649,-89.7373145707054,43.4189726454148
NORTHERN AMERICA,Connecticut,North Preston Hill,441,329,173,41.7208333333333,-73.5133333333333,-73.5719585533947,41.7647103707775,-73.4998148102032,41.7152053424572
NORTHERN AMERICA,Michigan,Mount Desor,425,161,0,47.9558333333333,-89.0116666666667,-89.0669351867021,47.992918812543,-89.0669351867021,47.992918812543
NORTHERN AMERICA,Kansas,Goodwin Hill,415,55,0,39.1072222222222,-96.5711111111111,-96.5752158374295,39.1152839280608,-96.5954542723673,39.1265409291069
PACIFIC,Guam,Mount Lamlam,406,406,343,13.3397,144.6655,144.629172102962,13.3764403238698,144.661484753479,13.3357680511823
NORTHERN AMERICA,Missouri,Mudlick Mountain,400,273,178,37.2619444444444,-90.5244444444444,-90.5697280981673,37.2978422621671,-90.5189764298926,37.2685669694969
NORTHERN AMERICA,Campeche,Cerro Champerico,390,74,0,17.9088888888889,-89.47,-89.5062947089331,17.9441675545953,-89.5062947089331,17.9441675545953
NORTHERN AMERICA,Indiana,Hoosier Hill,383,17,0,40.0012,-84.8487,-84.880037603742,40.0266382316623,-84.880037603742,40.0266382316623
NORTHERN AMERICA,Illinois,Charles Mound,376,65,0,42.5041,-90.2398,-90.2443621515772,42.5007240513304,-90.271748795205,42.5277264766369
NORTHERN AMERICA,Ohio,West Rome Hill,354,202,180,38.6775,-83.3986111111111,-83.4254526717784,38.6992518169592,-83.3967149183858,38.6789863385247
NORTHERN AMERICA,Michigan,Empire Bluffs,340,165,164,44.7997222222222,-86.0713888888889,-86.1128019059165,44.8287352961793,-86.0748644281535,44.7972475373866
NORTHERN AMERICA,Iowa,Marching Bears Ridge,335,148,0,43.0658333333333,-91.1888888888889,-91.2146170746593,43.0852284016055,-91.2146170746593,43.0852284016055
NORTHERN AMERICA,Illinois,Williams Hill,324,150,0,37.5825,-88.4758333333333,-88.4673983656556,37.5869596082348,-88.5126989861657,37.6117314359239
NORTHERN AMERICA,Indiana,Washington County High Point,320,51,0,38.6416666666667,-85.9872222222222,-85.9925629552843,38.6374776737711,-86.0241652555188,38.6712530730356
NORTHERN AMERICA,Illinois,Bald Knob,311,182,0,37.5519444444444,-89.3461111111111,-89.3362093520702,37.5485652789143,-89.381489422686,37.5800952934688
NORTHERN AMERICA,Indiana,Williams Benchmark,296,172,0,38.1736111111111,-85.9133333333333,-85.9472974662487,38.2008584673122,-85.9472974662487,38.2008584673122
NORTHERN AMERICA,Rhode I.,Jerimoth Hill,247,39,0,41.8493,-71.7789,-71.7832955476493,41.8550170045936,-71.8134129151491,41.8752693042243
NORTHERN AMERICA,Mississippi,Woodall Mountain,246,76,0,34.7877,-88.2416,-88.2440584632258,34.7901788566447,-88.2686497085424,34.8104576903656
NORTHERN AMERICA,Ohio,Peninsula Hill,244,70,0,41.245,-81.5519444444444,-81.5441296459713,41.250897511709,-81.5739608947434,41.2621509739075
NORTHERN AMERICA,Quintana Roo,Cerro El Charro,240,73,0,18.1019444444444,-88.8930555555556,-88.915119057973,18.1237625077109,-88.915119057973,18.1237625077109
NORTHERN AMERICA,Mississippi,Choctaw County High Point,220,54,0,33.1283333333333,-89.3105555555556,-89.3327963634359,33.1479423911192,-89.3327963634359,33.1479423911192
NORTHERN AMERICA,Yucatán,Cerro Benito Juaréz,210,65,0,19.9363888888889,-89.3327777777778,-89.3284315232748,19.9382406150835,-89.3523139828499,19.9540475771508
NORTHERN AMERICA,Rhode I.,Beacon Pole Hill,168,55,0,41.9952777777778,-71.4516666666667,-71.4553474249831,41.9902810058849,-71.4764761333322,42.0150368154412
NORTHERN AMERICA,Louisiana,Driskill Mountain,163,63,0,32.4249,-92.8967,-92.9001555790379,32.4287324203985,-92.9161072978589,32.4422573573212
